DOW,stop_id,direction_id,firstArrival_mam,lastArrival_mam,trips,averageHeadway,longestHeadway,Percentile90_hw,span_min,span_max,freq_min,span_pass,freq_pass,stop_code,platform_code,stop_name,stop_desc,stop_lat,stop_lon
SA,2392433,NA,527.6,1132.6,11,60.499999999999986,65,60.5,480,1110,20,FALSE,FALSE,,,University Crossing Transit Hub,,42.64926978355,-71.323415136585
SA,2581590,NA,460.31666666666666,1150.3166666666666,24,29.999999999999996,30.000000000000057,30,480,1110,20,TRUE,FALSE,,,Middlesex St & Lord Overpass Circle,,42.6397017558509,-71.3153045930386
SA,2583090,NA,492,1112,22,29.523809523809526,50,45,480,1110,20,FALSE,FALSE,,,D'Youville Manor,,42.645185,-71.366139
SA,2729431,NA,501.5833333333333,1041.5833333333333,10,59.99999999999999,60.00000000000006,60.000000000000014,480,1110,20,FALSE,FALSE,,,Broadway St & Walker St,,42.6422536164387,-71.3314013280904
SA,2729432,NA,507,1047,10,60,60,60,480,1110,20,FALSE,FALSE,,,Broadway St & School St,,42.6430320007283,-71.3260442334971
SA,2729433,NA,502,1042,10,60,60,60,480,1110,20,FALSE,FALSE,,,Francis Gate,,42.6426387960648,-71.3297325217456
SA,2729434,NA,487,1117,22,30,40,35,480,1110,20,FALSE,FALSE,,,Market Basket Old Ferry Road,,42.641882,-71.3599
SA,2729436,NA,495,1120,22,29.761904761904763,35,35,480,1110,20,FALSE,FALSE,,,Shedd Park,,42.6327686952661,-71.2888179168271
SA,2729437,NA,541,1081,7,90,90,90,480,1110,20,FALSE,FALSE,,,Chelmsford Center,,42.5968271367376,-71.3508489810976
SA,2730030,NA,504,1104,11,60,60,60,480,1110,20,FALSE,FALSE,,,Wentworth Ave & Andover St,,42.6429544309221,-71.2886473769615
SA,2734160,NA,496,1079,20,30.68421052631579,43,43,480,1110,20,FALSE,FALSE,40,,Radisson Hotel,,42.6028239065934,-71.3482024938264
SA,2745401,NA,497,1037,10,60,60,60,480,1110,20,FALSE,FALSE,,,Billerica Business Center,,42.606449,-71.284338
SA,4147995,NA,514.9666666666667,1054.9666666666667,10,60,60,60,480,1110,20,FALSE,FALSE,,,53 Third Ave,,42.487954743255,-71.2252828272728
SA,4147996,NA,541.5833333333334,1081.5833333333333,10,59.999999999999986,60,60,480,1110,20,FALSE,FALSE,,,53 Third Ave,,42.4881016123744,-71.2252112322778
SA,4147997,NA,548,1088,10,60,60,60,480,1110,20,FALSE,FALSE,,,Outside Mitre Facility,,42.5065339085165,-71.2322157023258
SA,4147998,NA,510,1050,10,60,60,60,480,1110,20,FALSE,FALSE,,,Outside Mitre Facility,,42.5064029105808,-71.2324584422437
SA,800711,NA,494,1094,11,60,60,60,480,1110,20,FALSE,FALSE,,,Andover St & Burnham Rd,,42.6462188743028,-71.2722251933834
SA,800713,NA,497,1097,11,60,60,60,480,1110,20,FALSE,FALSE,,,Andover St & Nesmith St,,42.6422166323226,-71.2980164070772
SA,800715,NA,489,1029,10,60,60,60,480,1110,20,FALSE,FALSE,,,Andrews St & Moore St,,42.62819,-71.302209
SA,800725,NA,498.31666666666666,1038.3166666666666,10,59.99999999999999,60.00000000000006,60.000000000000014,480,1110,20,FALSE,FALSE,,,Broadway St & School St,,42.6431644233061,-71.3257572736397
SA,800730,NA,469,1079,11,61,70,61,480,1110,20,FALSE,FALSE,,,Chelmsford St and Westford St,,42.637532506168,-71.3160896641489
SA,800734,NA,530,1070,10,60,60,60,480,1110,20,FALSE,FALSE,,,Dalton Rd & Steadman St,,42.6108056569509,-71.3434266159588
SA,800741,NA,545,1085,10,60,60,60,480,1110,20,FALSE,FALSE,,,Four Corners,,42.6817672938878,-71.3946431326104
SA,800746,NA,533,1073,7,90,90,90,480,1110,20,FALSE,FALSE,,,Hampton Inn Technology Drive,,42.5734185576437,-71.4174795931129
SA,800750,NA,497,1037,10,60,60,60,480,1110,20,FALSE,FALSE,,,Hildreth St and Bridge St,,42.6551329204429,-71.3029534809498
SA,800755,NA,420,1152,311,2.361290322580645,15,7,480,1110,20,TRUE,TRUE,,,Kennedy Center,,42.63634,-71.31445
SA,800768,NA,481,1086,11,60.5,63,62.1,480,1110,20,FALSE,FALSE,,,Mammoth Rd & Woodward Ave,,42.6518085397473,-71.3348914920342
SA,800778,NA,497.3333333333333,1037.3333333333333,10,59.99999999999999,60.00000000000006,60.000000000000014,480,1110,20,FALSE,FALSE,,,Mount Vernon St and Bowers St,,42.64713,-71.325809
SA,800784,NA,496.78333333333336,1036.7833333333333,10,59.99999999999999,60,60,480,1110,20,FALSE,FALSE,,,Pawtucket St & Fletcher St,,42.6495051113565,-71.3257308768212
SA,800788,NA,467,1007,10,60,60,60,480,1110,20,FALSE,FALSE,,,Pollard St & High St,,42.5788415213842,-71.2784209794576
SA,800793,NA,527,1067,7,90,90,90,480,1110,20,FALSE,FALSE,181,,224 Littleton Road,,42.5619398517141,-71.4308130251984
SA,800801,NA,430,1079,22,30.904761904761905,49,49,480,1110,20,FALSE,FALSE,850,,Shedd Park,,42.6326479637476,-71.2890009229529
SA,800803,NA,517.5166666666667,1057.5166666666667,10,60,60,60,480,1110,20,FALSE,FALSE,,,Chelmsford Cinema,,42.6109998687704,-71.323298832016
SA,800810,NA,442,1042,11,60,60,60,480,1110,20,FALSE,FALSE,,,Tewksbury Town Hall,,42.612103,-71.233593
SA,800815,NA,491,1031,10,60,60,60,480,1110,20,FALSE,FALSE,,,Tsongas Arena (French St),,42.6482822447969,-71.313710190333
SA,800825,NA,492,1092,11,60,60,60,480,1110,20,FALSE,FALSE,,,Wentworth Ave & Andover St,,42.6428335451973,-71.288456181454407
SA,800829,NA,512,1071,14,43,71,71,480,1110,20,FALSE,FALSE,,,Westford Valley Market Place,,42.566775385023,-71.4218751018524
SA,800833,NA,561,1101,7,90,90,90,480,1110,20,FALSE,FALSE,,,Gorham St and Carlisle St,,42.6043525524542,-71.2998687717717
SA,802637,NA,495,1105,11,61,70,61,480,1110,20,FALSE,FALSE,,,Chelmsford St & Westford St,,42.6376433380403,-71.3170413982461
SA,803702,NA,552,1092,10,60,60,60,480,1110,20,FALSE,FALSE,,,Bedford Springs Apartments,,42.51153781731,-71.2372659750966
SA,804915,NA,565,1105,10,60,60,60,480,1110,20,FALSE,FALSE,,,Lakeview Ave and Mammoth Road,,42.6825482266981,-71.3547068678104
SA,805127,NA,509,1049,7,90,90,90,480,1110,20,FALSE,FALSE,,,Hampton Inn Technology Drive,,42.5735211562696,-71.4175858387223
SA,805136,NA,506,1046,10,60,60,60,480,1110,20,FALSE,FALSE,,,Dalton Rd & Steadman St,,42.6106797151297,-71.3434653379629
SA,805144,NA,480,1080,11,60,60,60,480,1110,20,FALSE,FALSE,,,LGH & Technology Drive,,42.6276183202191,-71.3660401717477
SA,814366,NA,481,1110,22,29.952380952380953,31,31,480,1110,20,FALSE,FALSE,3,,Hannafords Plaza,,42.629004,-71.277994
SA,814367,NA,493.46666666666664,1033.4666666666667,10,60.00000000000001,60.00000000000006,60.000000000000014,480,1110,20,FALSE,FALSE,4,,Chelmsford Rd & Boston Rd,,42.5843321083655,-71.2928164458949
SA,814369,NA,459.28333333333336,1059.2833333333333,11,59.99999999999999,60,60,480,1110,20,FALSE,FALSE,7,,Main St & Marjorie Rd,,42.5704384633847,-71.188311004893
SA,814370,NA,464.31666666666666,1064.3166666666666,11,59.99999999999999,60.00000000000006,60.00000000000001,480,1110,20,FALSE,FALSE,8,,Mission Rd & Dunstable Rd,,42.645264,-71.398005
SA,814371,NA,508,1068,20,29.473684210526315,40,40,480,1110,20,FALSE,FALSE,9,,Chelmsford Arms,,42.619112,-71.349483
SA,814372,NA,501.3666666666667,1041.3666666666666,7,89.99999999999999,90,90,480,1110,20,FALSE,FALSE,10,,Billerica Rd & Chelmsford St,,42.5969531825591,-71.350703666416
SA,814373,NA,500,1076,20,30.31578947368421,36,36,480,1110,20,FALSE,FALSE,11,,Marshall's Plaza,,42.5942807076506,-71.348819085409
SA,814374,NA,535,1075,7,90,90,90,480,1110,20,FALSE,FALSE,12,,Nashoba Tech,,42.5718165554766,-71.4097502233824
SA,814375,NA,469.7,1069.7,11,60.00000000000001,60.00000000000006,60.00000000000001,480,1110,20,FALSE,FALSE,13,,Tyngsboro Rd & Wellman Ave,,42.64435484726,-71.3912136771067
SA,814376,NA,507,1047,7,90,90,90,480,1110,20,FALSE,FALSE,14,,Nashoba Tech,,42.571465,-71.411222
SA,814378,NA,524.9833333333333,1064.9833333333333,10,60,60,60,480,1110,20,FALSE,FALSE,16,,Gorham St & Lincoln St,,42.6276744074849,-71.3078645948573
SA,814379,NA,452.06666666666666,1021.6333333333333,17,35.59791666666666,60,60,480,1110,20,FALSE,FALSE,17,,Gorham St & London St,,42.6273113472813,-71.3078662866388
SA,814380,NA,539.4833333333333,1079.4833333333333,10,60,60,60,480,1110,20,FALSE,FALSE,18,,Chelmsford St & Independence Dr,,42.603259452267,-71.3456865449946
SA,814381,NA,498.26666666666665,1061.8666666666666,20,29.663157894736838,36.39999999999998,36.39999999999998,480,1110,20,FALSE,FALSE,19,,Bridge St & 18th St,,42.661147,-71.303408
SA,814382,NA,531.1166666666667,1071.1166666666666,10,59.999999999999986,60,60,480,1110,20,FALSE,FALSE,20,,Dalton Rd & Field St,,42.607501,-71.351041
SA,814383,NA,452.28333333333336,1021.8,17,35.594791666666666,60,60,480,1110,20,FALSE,FALSE,21,,Gorham St & Manchester St,,42.626091,-71.307362
SA,814384,NA,524.55,1064.55,10,60,60,60,480,1110,20,FALSE,FALSE,22,,Gorham St & Manchester St,,42.626066,-71.307163
SA,814385,NA,490.18333333333334,1030.1833333333334,10,60.00000000000001,60.000000000000114,60.00000000000002,480,1110,20,FALSE,FALSE,23,,Lawrence St & Billerica St,,42.6254390894717,-71.2943048427573
SA,814386,NA,525.5833333333334,1065.5833333333333,10,59.999999999999986,60,60,480,1110,20,FALSE,FALSE,24,,109 Arlington,,42.670566216451,-71.298506176294
SA,814387,NA,470.8833333333333,1040.4,20,29.974561403508776,30.48333333333335,30.48333333333335,480,1110,20,FALSE,FALSE,26,,Concord Rd & Blanchard Ave,,42.5588618584938,-71.2694780063271
SA,814389,NA,480.73333333333335,1080.7333333333333,11,60,60,60,480,1110,20,FALSE,FALSE,28,,11 Technology,,42.627487050077,-71.3625801839318
SA,814390,NA,566.9166666666666,1106.9166666666667,7,90.00000000000001,90.00000000000011,90.00000000000006,480,1110,20,FALSE,FALSE,29,,Gorham St & Blossom St,,42.626639,-71.307456
SA,814391,NA,469.75,1079.75,11,61,70,61,480,1110,20,FALSE,FALSE,30,,Westford St & Gates St,,42.6368674035375,-71.3201062902583
SA,814394,NA,524.0333333333333,1106.2833333333333,17,36.390625,60,60,480,1110,20,FALSE,FALSE,33,,1158 Gorham,,42.624092,-71.306372
SA,814396,NA,469.05,1069.05,11,59.99999999999999,60,60,480,1110,20,FALSE,FALSE,35,,Tyngsboro Rd & Pailet Dr,,42.6453954531402,-71.3928253554633
SA,814397,NA,486.65,1026.65,10,60.000000000000014,60.000000000000114,60.00000000000002,480,1110,20,FALSE,FALSE,36,,Middlesex St & Canton St,,42.6386232190018,-71.3336764685012
SA,814399,NA,460.75,1051.9,20,31.113157894736847,51.15000000000009,51.14999999999998,480,1110,20,FALSE,FALSE,39,,Old Elm St & Wilson St,,42.5906407939436,-71.2847558058902
SA,814400,NA,495.23333333333335,1035.2333333333333,10,60,60,60,480,1110,20,FALSE,FALSE,,,Chelmsford St & Independence Dr,,42.603365,-71.345789
SA,814401,NA,494.96666666666664,1094.9666666666667,11,60.00000000000001,60.00000000000006,60.00000000000001,480,1110,20,FALSE,FALSE,41,,Middlesex St & Stevens St,,42.6384856249038,-71.3345199311746
SA,814402,NA,564.0833333333334,1104.0833333333333,7,89.99999999999999,90,90,480,1110,20,FALSE,FALSE,42,,Carlisle St & Devine Ave,,42.6152140910776,-71.3058405418831
SA,814403,NA,519,1059,10,60,60,60,480,1110,20,FALSE,FALSE,43,,Gorham St & Carlisle St,,42.604898,-71.299773
SA,814405,NA,478.01666666666665,1083.0166666666667,11,60.5,62.5,62.5,480,1110,20,FALSE,FALSE,45,,Old Meadow Rd & Avon St,,42.6580781790721,-71.3370673711391
SA,814406,NA,471.1166666666667,1127.2166666666667,32,21.164516129032258,56.100000000000136,40.03333333333342,480,1110,20,TRUE,FALSE,46,,Father Norton Manor,,42.6437079095698,-71.3014729155516
SA,814407,NA,494.3333333333333,1104.3333333333333,11,60.99999999999999,70,61.00000000000004,480,1110,20,FALSE,FALSE,48,,Westford St & Gates St,,42.6366277408352,-71.3204851885839
SA,814408,NA,523.5,1105.7833333333333,17,36.39270833333333,60,60,480,1110,20,FALSE,FALSE,49,,Gorham St & Lundberg St,,42.622089,-71.305608
SA,814410,NA,505.25,1045.25,10,60,60,60,480,1110,20,FALSE,FALSE,51,,Dalton Rd & Cortez St,,42.6087299486832,-71.3480072438255
SA,814411,NA,485.5833333333333,1096.55,22,29.09365079365079,59.03333333333342,59.03333333333342,480,1110,20,FALSE,FALSE,52,,Drum Hill Rd & Technology Dr,,42.626879,-71.357842
SA,814413,NA,530.7333333333333,1070.7333333333333,10,60,60,60,480,1110,20,FALSE,FALSE,54,,Dalton Rd & Woodlawn Ave,,42.60864,-71.348404
SA,814414,NA,582.1666666666666,1122.1666666666667,10,60.000000000000014,60.000000000000114,60.00000000000002,480,1110,20,FALSE,FALSE,55,,Bridge St & Emerson Ave,,42.6662425011173,-71.3034573236873
SA,814415,NA,476.28333333333336,1076.2833333333333,11,59.99999999999999,60,60,480,1110,20,FALSE,FALSE,56,,Middlesex St & Tobin Ave,,42.6357652114956,-71.3712364273181
SA,814417,NA,570.0666666666667,1110.0666666666666,10,59.999999999999986,60,60,480,1110,20,FALSE,FALSE,58,,Lakeview Ave & Doyle Ave,,42.670271822439,-71.3273489579427
SA,814418,NA,459,1149,46,15.333333333333334,30,19,480,1110,20,TRUE,TRUE,59,,Middlesex & Elliot St,,42.6412220710277,-71.3110465937424
SA,814419,NA,534.8333333333334,1074.8333333333333,10,59.999999999999986,60,60,480,1110,20,FALSE,FALSE,60,,1337 Lakeview,,42.671171,-71.328635
SA,814421,NA,509,1049,10,60,60,60,480,1110,20,FALSE,FALSE,62,,Pollard St and High St,,42.578878,-71.278231
SA,814422,NA,522.75,1105.0833333333333,17,36.39583333333333,60,60,480,1110,20,FALSE,FALSE,63,,Gorham St & Cosgrove St,,42.6192535110276,-71.304682109519
SA,814424,NA,463.6,1063.6,11,59.999999999999986,60,60,480,1110,20,FALSE,FALSE,65,,Durnstable Rd & Dunshire Dr,,42.6426343811632,-71.3950346660566
SA,814425,NA,541.75,1081.75,10,60,60,60,480,1110,20,FALSE,FALSE,66,,Stewart St & Tyngsboro Rd,,42.6797587573933,-71.3742118231989
SA,814426,NA,473.6666666666667,1128.7,22,31.192063492063493,55.03333333333342,55.03333333333342,480,1110,20,TRUE,FALSE,67,,High St & Chestnut St,,42.6434856573503,-71.3015711597126
SA,814429,NA,498.85,1038.85,7,89.99999999999999,90,90,480,1110,20,FALSE,FALSE,70,,Billerica Rd & Industrial Ave,,42.598045,-71.335367
SA,814430,NA,529.3166666666667,1069.3166666666666,10,59.999999999999986,60,60,480,1110,20,FALSE,FALSE,71,,Bridge St & Lafayette St,,42.670482,-71.30414
SA,814431,NA,530.4666666666667,1070.4666666666667,10,60,60,60,480,1110,20,FALSE,FALSE,72,,Dalton Rd & Jensen Ave,,42.60947,-71.346652
SA,814432,NA,511.73333333333335,1051.7333333333333,10,60,60,60,480,1110,20,FALSE,FALSE,73,,Princeton St & Church St,,42.633948,-71.377028
SA,814434,NA,491.65,1031.65,10,60.000000000000014,60.000000000000114,60.00000000000002,480,1110,20,FALSE,FALSE,75,,Woburn St & Carmine St,,42.6205246043174,-71.2913710043048
SA,814436,NA,453.76666666666665,993.7666666666667,10,60,60,60,480,1110,20,FALSE,FALSE,77,,Gorham St & Carlisle St,,42.617363281336,-71.3042601178927
SA,814437,NA,461.3333333333333,1061.3333333333333,11,59.99999999999999,60.00000000000006,60.00000000000001,480,1110,20,FALSE,FALSE,78,,Main St & Pine Ave,,42.5619529923334,-71.1832662346631
SA,814438,NA,518.4333333333333,1058.4333333333334,10,60.000000000000014,60.000000000000114,60.00000000000002,480,1110,20,FALSE,FALSE,79,,Gorham St & Carleton Ave,,42.60272,-71.298075
SA,814441,NA,521.2,1126.2,11,60.5,65,60.5,480,1110,20,FALSE,FALSE,82,,Mammoth Rd & 5th Ave,,42.6524430207602,-71.3354814008565
SA,814442,NA,497.48333333333335,1097.4833333333333,11,60,60,60,480,1110,20,FALSE,FALSE,83,,Andover St & High St,,42.6420423488051,-71.299689503375
SA,814443,NA,468.01666666666665,1068.0166666666667,11,60,60,60,480,1110,20,FALSE,FALSE,84,,Main St & Massachusetts Ave,,42.562045,-71.183164
SA,814444,NA,456.55,996.55,10,59.99999999999999,60,60,480,1110,20,FALSE,FALSE,85,,Gorham St & Sprague Ave,,42.6020343503947,-71.2981523447737
SA,814445,NA,475.7,1080.7,11,60.50000000000001,62.883333333333326,62.19333333333334,480,1110,20,FALSE,FALSE,86,,University Ave & White St,,42.655097,-71.32868
SA,814446,NA,494,1091,14,45.92307692307692,57,57,480,1110,20,FALSE,FALSE,87,,Alpha Rd & Stuart Rd,,42.592354,-71.325631
SA,814447,NA,505,1045,10,60,60,60,480,1110,20,FALSE,FALSE,88,,Bedford Springs Apartments,,42.510411,-71.23619
SA,814449,NA,503.65,1043.65,10,60.000000000000014,60.000000000000114,60.00000000000002,480,1110,20,FALSE,FALSE,91,,Beech St & 10th St,,42.65385,-71.298375
SA,814450,NA,521.6666666666666,1061.6666666666667,10,60.000000000000014,60.000000000000114,60.00000000000002,480,1110,20,FALSE,FALSE,92,,Gorham St & Devine Ave,,42.615089912113,-71.3034047078278
SA,814451,NA,454.18333333333334,994.1833333333333,10,59.99999999999999,60,60,480,1110,20,FALSE,FALSE,93,,Gorham St & Devine Ave,,42.6149851769295,-71.3035074606003
SA,814452,NA,489.6166666666667,1029.6166666666666,10,59.999999999999986,60,60,480,1110,20,FALSE,FALSE,94,,Middlesex St & Aldea St,,42.6375598135246,-71.3456311697964
SA,814454,NA,536,1076,10,60,60,60,480,1110,20,FALSE,FALSE,96,,Dracut High School,,42.6752220857494,-71.3349759968664
SA,814457,NA,552.55,1092.55,10,60,60,60,480,1110,20,FALSE,FALSE,99,,Middlesex Tpk & Oak Park Dr,,42.519006,-71.246466
SA,814459,NA,536.2,1076.2,10,60,60,60,480,1110,20,FALSE,FALSE,101,,Lakeview Ave & Litchfield Ave,,42.676452,-71.33652
SA,814460,NA,477.06666666666666,1087.0666666666666,21,30.499999999999996,47.63333333333321,37.63333333333344,480,1110,20,FALSE,FALSE,102,,Wood St & Redwood Ln,,42.6301601602425,-71.3550034327096
SA,814461,NA,491.65,1091.65,11,60.000000000000014,60.000000000000114,60.000000000000014,480,1110,20,FALSE,FALSE,103,,Middlesex St & Samuel St,,42.63621,-71.348932
SA,814462,NA,500.75,1076.75,20,30.31578947368421,36,36,480,1110,20,FALSE,FALSE,104,,16 Boston Rd,,42.5951121336151,-71.3516614473032
SA,814463,NA,563.5,1111.0333333333333,17,34.22083333333333,60,60,480,1110,20,FALSE,FALSE,105,,16 Carlisle,,42.613005,-71.306633
SA,814464,NA,504.2,1044.2,10,60.00000000000001,60.00000000000006,60.000000000000014,480,1110,20,FALSE,FALSE,106,,160 Middlesex,,42.5211394611392,-71.2494087811245
SA,814465,NA,467.6,1067.6,11,59.999999999999986,60,60,480,1110,20,FALSE,FALSE,107,,Tyngsboro Rd & Cross St,,42.647781,-71.396431
SA,814468,NA,555.85,1095.85,10,59.999999999999986,60,60,480,1110,20,FALSE,FALSE,110,,Frost Rd & Fletcher Dr,,42.6955809899794,-71.4164670573157
SA,814470,NA,514.85,1054.85,10,59.999999999999986,60,60,480,1110,20,FALSE,FALSE,112,,Groton Rd & Dunstable Rd,,42.639742,-71.385247
SA,814471,NA,543,1083,10,60,60,60,480,1110,20,FALSE,FALSE,113,,Lakeview Apartments Tyngsborough,,42.68375,-71.380638
SA,814472,NA,498.1666666666667,1074.5,20,30.333333333333332,36.33333333333337,36.33333333333337,480,1110,20,FALSE,FALSE,114,,Wilson St & Billerica Rd,,42.5980131400793,-71.348060903297693
SA,814473,NA,496.53333333333336,1096.5333333333333,11,59.99999999999999,60,60,480,1110,20,FALSE,FALSE,115,,Nesmith St & Mansur St,,42.640044050657004,-71.2959470580519
SA,814474,NA,525.1833333333333,1130.1833333333334,11,60.500000000000014,65,60.5000000000001,480,1110,20,FALSE,FALSE,116,,University Ave & White St,,42.6553784125759,-71.3293653316809
SA,814475,NA,536.7833333333333,1076.7833333333333,10,60,60,60,480,1110,20,FALSE,FALSE,117,,Lakeview Ave & Tennis Plaza Rd,,42.679491,-71.341691
SA,814476,NA,491.43333333333334,1031.4333333333334,10,60.00000000000001,60.000000000000114,60.00000000000002,480,1110,20,FALSE,FALSE,118,,Middlesex St & Cornell St,,42.6351344909056,-71.3538889939931
SA,814477,NA,566.8166666666667,1106.8166666666666,10,59.999999999999986,60,60,480,1110,20,FALSE,FALSE,119,,Lakeview Ave & Tennis Plaza Rd,,42.679345,-71.341571
SA,814478,NA,513.7,1053.7,10,60,60,60,480,1110,20,FALSE,FALSE,120,,Middlesex Tpk & 4th Ave,,42.4917390969101,-71.2243493628123
SA,814479,NA,490.53333333333336,1090.5333333333333,11,59.99999999999999,60,60,480,1110,20,FALSE,FALSE,121,,Middlesex St & Cornells St,,42.635019,-71.353726
SA,814480,NA,503.28333333333336,1043.2833333333333,7,89.99999999999999,90,90,480,1110,20,FALSE,FALSE,122,,175 Littleton,,42.591079,-71.370518
SA,814481,NA,496,1100,22,28.761904761904763,56,56,480,1110,20,FALSE,FALSE,177 River Road,,River Rd & Trull Ln,,42.65362957,-71.277718
SA,814482,NA,561,1101,10,60,60,60,480,1110,20,FALSE,FALSE,123,,Lakeview Ave & Pointsetta Ave,,42.6809587587527,-71.3885879640109
SA,814483,NA,503.51666666666665,1043.5166666666667,7,90,90,90,480,1110,20,FALSE,FALSE,124,,179 Littleton,,42.5899744882732,-71.3726668865673
SA,814485,NA,544.2333333333333,1084.2333333333333,10,60,60,60,480,1110,20,FALSE,FALSE,126,,Lakeview Ave & Pointsetta Ave,,42.68102,-71.389006
SA,814486,NA,467.2,1067.2,11,60.00000000000001,60.00000000000006,60.00000000000001,480,1110,20,FALSE,FALSE,127,,180 Tyngsboro,,42.6485308800118,-71.3973191366744
SA,814487,NA,566.3333333333334,1106.3333333333333,10,59.999999999999986,60,60,480,1110,20,FALSE,FALSE,128,,Lakeview Ave & St Paul St,,42.6806124830345,-71.3451712365903
SA,814488,NA,518.3666666666667,1058.3666666666666,10,59.999999999999986,60,60,480,1110,20,FALSE,FALSE,129,,Groton Rd & Scotty Hollow Dr,,42.633373,-71.401481
SA,814489,NA,492,1032,10,60,60,60,480,1110,20,FALSE,FALSE,130,,Middlesex St Middlesex Plaza,,42.634864871459,-71.356611173945
SA,814491,NA,516.1166666666667,1056.1166666666666,10,59.999999999999986,60,60,480,1110,20,FALSE,FALSE,132,,Gorham St & Summer St,,42.6393950009555,-71.3089405044822
SA,814492,NA,479,1079,21,30,43.66666666666674,43.666666666666636,480,1110,20,FALSE,FALSE,133,,Princeton St & Brouilette St,,42.6339181935974,-71.3641355037039
SA,814494,NA,492.28333333333336,1032.2833333333333,10,59.99999999999999,60,60,480,1110,20,FALSE,FALSE,135,,Woburn St & Easton St,,42.6196906438827,-71.2901360832037
SA,814495,NA,486.3833333333333,1026.3833333333334,10,60.000000000000014,60.000000000000114,60.00000000000002,480,1110,20,FALSE,FALSE,136,,Lawrence St & Cady St,,42.6389545114075,-71.3042649237217
SA,814496,NA,467.46666666666664,1067.4666666666667,11,60.00000000000001,60.00000000000006,60.00000000000001,480,1110,20,FALSE,FALSE,137,,Main St & Wisser St,,42.5590620449582,-71.1822341872075
SA,814497,NA,489.6666666666667,1089.6666666666667,11,60.00000000000001,60.000000000000114,60.000000000000014,480,1110,20,FALSE,FALSE,139,,Middlesex St & Dingwell St,,42.635044,-71.35898
SA,814498,NA,457.1333333333333,997.1333333333333,10,60,60,60,480,1110,20,FALSE,FALSE,140,,Boston Rd & Amherst St,,42.5992829656209,-71.2989229394035
SA,814499,NA,524.7166666666667,1064.7166666666667,10,60,60,60,480,1110,20,FALSE,FALSE,141,,Liberty St & Grace St,,42.6333365753035,-71.3259327847884
SA,814500,NA,474,1074,11,60,60,60,480,1110,20,FALSE,FALSE,142,,Market Basket Plaza,,42.590495,-71.204354
SA,814501,NA,505.28333333333336,1105.2833333333333,11,59.99999999999999,60,60,480,1110,20,FALSE,FALSE,143,,Wentworth Ave & Hovey St,,42.637987514336,-71.286639776581
SA,814505,NA,489.45,1089.45,11,60.00000000000001,60.00000000000006,60.00000000000001,480,1110,20,FALSE,FALSE,147,,Middlesex St & Nelson St,,42.635419477232404,-71.3607748076206
SA,814506,NA,493.71666666666664,1033.7166666666667,10,60.00000000000001,60.00000000000006,60.000000000000014,480,1110,20,FALSE,FALSE,148,,Middlesex St & Thorncliff Ave,,42.635633,-71.361334
SA,814507,NA,537.6833333333333,1077.6833333333334,10,60.000000000000014,60.000000000000114,60.00000000000002,480,1110,20,FALSE,FALSE,149,,Lakeview Ave & Pine St,,42.683026,-71.350739
SA,814508,NA,524.3666666666667,1124.3666666666666,11,59.999999999999986,60,60,480,1110,20,FALSE,FALSE,150,,Rogers St & Park Ave,,42.636579,-71.296092
SA,814509,NA,565.4666666666667,1105.4666666666667,10,60,60,60,480,1110,20,FALSE,FALSE,151,,Lakeview Ave & Mill St,,42.682893,-71.350976
SA,814510,NA,494.9166666666667,1094.9166666666667,11,60.00000000000001,60.000000000000114,60.000000000000014,480,1110,20,FALSE,FALSE,152,,Burnham Rd & Russell St,,42.651713,-71.27391
SA,814512,NA,494,1034,10,60,60,60,480,1110,20,FALSE,FALSE,154,,Treble Cove Plaza (199 Boston Rd),,42.5817414389115,-71.2890905082568
SA,814513,NA,540.8,1080.8,10,60,60,60,480,1110,20,FALSE,FALSE,155,,199 Chelmsford,,42.6086165412272,-71.3404901058507
SA,814514,NA,519,1059,10,60,60,60,480,1110,20,FALSE,FALSE,156,,Cross Point Tower,,42.61535,-71.323715000000007
SA,814515,NA,460,1060,21,30,59,59,480,1110,20,FALSE,FALSE,157,,Triangle Store (2 Main St),,42.634571,-71.397789
SA,814516,NA,517.7333333333333,1057.7333333333333,10,60,60,60,480,1110,20,FALSE,FALSE,158,,Boston Rd & Amherst St,,42.599608,-71.298678
SA,814517,NA,485.78333333333336,1095.7833333333333,11,60.99999999999999,70,61,480,1110,20,FALSE,FALSE,159,,Drum Hill Rd at Enterprise Bank,,42.6255728036846,-71.3605097702645
SA,814518,NA,485.0833333333333,1085.0833333333333,21,29.999999999999996,40.13333333333338,40.133333333333326,480,1110,20,FALSE,FALSE,160,,Westford St & Parkhurst Rd,,42.62607,-71.359785
SA,814520,NA,564,1104,10,60,60,60,480,1110,20,FALSE,FALSE,162,,Treble Cove Plaza,,42.58175,-71.288875
SA,814522,NA,524.9833333333333,1129.9833333333333,11,60.5,65,60.5,480,1110,20,FALSE,FALSE,164,,University Ave & 4th Ave,,42.6558961096389,-71.3302373464797
SA,814523,NA,490.2,1030.2,10,60.00000000000001,60.00000000000006,60.000000000000014,480,1110,20,FALSE,FALSE,165,,W 6th St & Bunker Hill Ave,,42.655182,-71.309458
SA,814524,NA,508.01666666666665,1048.0166666666667,10,60,60,60,480,1110,20,FALSE,FALSE,166,,Pollard St & Salem Rd,,42.5732997510248,-71.2762343430255
SA,814525,NA,530.3833333333333,1070.3833333333334,7,90.00000000000001,90.00000000000011,90.00000000000006,480,1110,20,FALSE,FALSE,168,,203 Littleton,,42.5665926750038,-71.4233618325493
SA,814526,NA,532.75,1072.75,10,60,60,60,480,1110,20,FALSE,FALSE,169,,Pleasant St & Coventry Dr,,42.6651411088651,-71.3177340595967
SA,814527,NA,497.51666666666665,1037.5166666666667,7,90,90,90,480,1110,20,FALSE,FALSE,170,,Billerica Rd & Apollo Dr,,42.5966245718757,-71.3282944965059
SA,814528,NA,564.8666666666667,1104.8666666666666,10,59.999999999999986,60,60,480,1110,20,FALSE,FALSE,171,,Chelmsford Rd & Rangeway Rd,,42.584785,-71.296431
SA,814529,NA,482.73333333333335,1082.7333333333333,21,30,40.4666666666667,40.4666666666667,480,1110,20,FALSE,FALSE,172,,21 Drum Hill,,42.6250685771554,-71.3616359619713
SA,814530,NA,473,1073,11,60,60,60,480,1110,20,FALSE,FALSE,173,,Vinal Square,,42.6392797401732,-71.3829035983667
SA,814531,NA,480.21666666666664,1085.2166666666667,11,60.50000000000001,62.866666666666674,62.20666666666666,480,1110,20,FALSE,FALSE,174,,Mammoth Rd & Ross Ave,,42.6535784677144,-71.3372329853999
SA,814532,NA,473.01666666666665,1073.0166666666667,11,60,60,60,480,1110,20,FALSE,FALSE,175,,Main St & Hill St,,42.586551,-71.199416
SA,814533,NA,493.8666666666667,1113,20,32.5859649122807,60,44.69333333333333,480,1110,20,FALSE,FALSE,176,,Pleasant St & Coventry Dr,,42.665055686825,-71.3173893223252
SA,814534,NA,541.1,1081.1,10,59.999999999999986,60,60,480,1110,20,FALSE,FALSE,177,,Chelmsford St & Sylvan Ave,,42.6096789272598,-71.338876422325
SA,814535,NA,456,1146,34,20.90909090909091,30,30,480,1110,20,TRUE,FALSE,178,,Central St & Jackson St,,42.6424539465201,-71.3086698186781
SA,814536,NA,493.25,1033.25,10,60,60,60,480,1110,20,FALSE,FALSE,179,,Chelmsford Rd & Finnway St,,42.5846349668167,-71.2955371613837
SA,814537,NA,495.18333333333334,1035.1833333333334,10,60.00000000000001,60.000000000000114,60.00000000000002,480,1110,20,FALSE,FALSE,180,,221 Boston Rd,,42.5795753659984,-71.2867864045404
SA,814539,NA,497,1089,14,45.53846153846154,52,52,480,1110,20,FALSE,FALSE,182,,Harvard Pilgrim Vanguard,,42.59716671902,-71.3258636736107
SA,814541,NA,562,1102,10,60,60,60,480,1110,20,FALSE,FALSE,184,,Lakeview Ave & Pinehurst Ave,,42.6833708611542,-71.3834894498798
SA,814542,NA,500.3333333333333,1040.3333333333333,10,59.99999999999999,60.00000000000006,60.000000000000014,480,1110,20,FALSE,FALSE,186,,Humphrey St & Pemberton St,,42.664207,-71.299823
SA,814543,NA,496.21666666666664,1096.2166666666667,11,60.00000000000001,60.00000000000006,60.00000000000001,480,1110,20,FALSE,FALSE,187,,Nesmith St & Sherman St,,42.638359,-71.294891
SA,814544,NA,549.4833333333333,1089.4833333333333,7,90,90,90,480,1110,20,FALSE,FALSE,188,,Billerica Rd & Progress Ave,,42.5966175056415,-71.3238440849468
SA,814545,NA,495.25,1095.25,11,60,60,60,480,1110,20,FALSE,FALSE,189,,River Rd & Burnham Rd,,42.654425,-71.275627
SA,814547,NA,484.5,1024.5,10,60,60,60,480,1110,20,FALSE,FALSE,191,,Plain St & Payton St,,42.6243346014952,-71.3159042414343
SA,814548,NA,476.51666666666665,1081.5166666666667,11,60.5,62.73333333333335,62.31333333333332,480,1110,20,FALSE,FALSE,192,,University Ave & 6th Ave,,42.656893,-71.331617
SA,814550,NA,496,1096,11,60,60,60,480,1110,20,FALSE,FALSE,194,,Ideal Tape & Middlesex St,,42.6380719372666,-71.3300183092175
SA,814551,NA,485.6666666666667,1025.6666666666667,10,60.00000000000001,60.000000000000114,60.00000000000002,480,1110,20,FALSE,FALSE,195,,Branch St & Branch Pl,,42.638167,-71.329941
SA,814552,NA,507.26666666666665,1107.2666666666667,11,60,60,60,480,1110,20,FALSE,FALSE,196,,Brattle St & Douglas Rd,,42.6387377060131,-71.2772479165349
SA,814553,NA,458.18333333333334,1058.1833333333334,11,60.00000000000001,60.000000000000114,60.000000000000014,480,1110,20,FALSE,FALSE,197,,Main St & Roosevelt Rd,,42.5742596119081,-71.1924743421798
SA,814554,NA,479.26666666666665,1089.2666666666667,11,61,70,61,480,1110,20,FALSE,FALSE,198,,25 Drum Hill Rd,,42.62559,-71.36084
SA,814555,NA,470.65,1070.65,11,60.000000000000014,60.000000000000114,60.000000000000014,480,1110,20,FALSE,FALSE,199,,Main St & Hoover Rd,,42.574631,-71.192556
SA,814556,NA,479.1,1079.1,11,59.999999999999986,60,60,480,1110,20,FALSE,FALSE,200,,Princeton St & Harvard St,,42.634286,-71.366398
SA,814557,NA,496.7,1036.7,7,90.00000000000001,90.00000000000006,90.00000000000003,480,1110,20,FALSE,FALSE,201,,254 Billerica Rd,,42.59682,-71.32418
SA,814558,NA,481.6166666666667,1022.15,20,28.44912280701754,59.4666666666667,59.4666666666667,480,1110,20,FALSE,FALSE,202,,255 Chelmsford St,,42.632445,-71.319271
SA,814559,NA,511.8666666666667,1051.8666666666666,10,59.999999999999986,60,60,480,1110,20,FALSE,FALSE,203,,255 North Rd,,42.619052,-71.36565
SA,814560,NA,428.81666666666666,1077.05,22,30.868253968253967,48.23333333333335,48.23333333333329,480,1110,20,FALSE,FALSE,204,,255 Rogers Street,,42.6360746066021,-71.2940747802688
SA,814561,NA,478.78333333333336,1083.7833333333333,11,60.49999999999999,62.633333333333326,62.393333333333345,480,1110,20,FALSE,FALSE,205,,Old Meadow Rd & Lamb St,,42.6570524983712,-71.3400136522131
SA,814563,NA,481.85,1081.85,11,59.999999999999986,60,60,480,1110,20,FALSE,FALSE,208,,East St & Chandler St,,42.611761,-71.221469
SA,814564,NA,490.5833333333333,1030.5833333333333,10,59.99999999999999,60.00000000000006,60.000000000000014,480,1110,20,FALSE,FALSE,209,,W 6th St & Beaulieu St,,42.656449,-71.311135
SA,814565,NA,484.85,1024.85,10,59.999999999999986,60,60,480,1110,20,FALSE,FALSE,210,,Boston Rd & Marshall Rd,,42.6231668713719,-71.3138574723156
SA,814566,NA,497.53333333333336,1037.5333333333333,10,59.99999999999999,60,60,480,1110,20,FALSE,FALSE,211,,Boston Rd & Bridge St,,42.5750562628633,-71.2820171808971
SA,814567,NA,504.5,1044.5,7,90,90,90,480,1110,20,FALSE,FALSE,212,,273 Littleton,,42.585023,-71.382921
SA,814568,NA,463.1,1063.1,11,59.999999999999986,60,60,480,1110,20,FALSE,FALSE,213,,273 Main,,42.554292,-71.179926
SA,814569,NA,509,1049,10,60,60,60,480,1110,20,FALSE,FALSE,214,,Market Basket Senior Center,,42.644058,-71.319574
SA,814572,NA,526.55,1126.55,11,60,60,60,480,1110,20,FALSE,FALSE,216,,High St & Andover St,,42.6416370190275,-71.300013630065
SA,814575,NA,524.0166666666667,1064.0166666666667,10,60,60,60,480,1110,20,FALSE,FALSE,220,,Stevens St & Pine St,,42.6321729566886,-71.3332473564654
SA,814576,NA,552.85,1092.85,7,89.99999999999999,90,90,480,1110,20,FALSE,FALSE,221,,Billerica Rd & Elliot St,,42.594163,-71.320224
SA,814577,NA,427,1074.3833333333334,22,30.827777777777783,47.38333333333344,47.383333333333326,480,1110,20,FALSE,FALSE,222,,High St & Andover St,,42.6414276804172,-71.3000755752224
SA,814578,NA,517.9166666666666,1057.9166666666667,7,90.00000000000001,90.00000000000011,90.00000000000006,480,1110,20,FALSE,FALSE,223,,Littleton & Powers Rd,,42.55667,-71.438994
SA,814579,NA,490.0833333333333,1030.0833333333333,10,59.99999999999999,60.00000000000006,60.000000000000014,480,1110,20,FALSE,FALSE,225,,Chelmsford & Glen Ave,,42.6124267758764,-71.3320331379028
SA,814580,NA,526.4833333333333,1066.4833333333333,7,90,90,90,480,1110,20,FALSE,FALSE,226,,Littleton Rd & Powers Rd,,42.5565407162297,-71.4388343305509
SA,814581,NA,454.68333333333334,994.6833333333333,10,59.99999999999999,60,60,480,1110,20,FALSE,FALSE,227,,Gorham St & Riverneck Rd,,42.6120132368706,-71.3025548758061
SA,814582,NA,462.6166666666667,1062.6166666666666,11,59.999999999999986,60,60,480,1110,20,FALSE,FALSE,228,,Marinel Ave & Dunstable Rd,,42.641178,-71.389214
SA,814583,NA,538,1078,7,90,90,90,480,1110,20,FALSE,FALSE,229,,Kidder Rd & Littleton Rd,,42.5821979328946,-71.3885421593877
SA,814584,NA,517.9333333333333,1122.9333333333334,11,60.500000000000014,65,60.5000000000001,480,1110,20,FALSE,FALSE,230,,Varnum Ave & Avalon St,,42.6463337610716,-71.3410243668089
SA,814585,NA,507.51666666666665,1107.5166666666667,11,60,60,60,480,1110,20,FALSE,FALSE,231,,291 Douglas,,42.6376660278709,-71.2765166101975
SA,814586,NA,493.68333333333334,1033.6833333333334,10,60.00000000000001,60.000000000000114,60.00000000000002,480,1110,20,FALSE,FALSE,232,,Woburn St & Jean Ave,,42.6172450551619,-71.2886033518377
SA,814587,NA,499,1039,10,60,60,60,480,1110,20,FALSE,FALSE,233,,Billerica Center (297 Boston Rd),,42.5729833931642,-71.2783721225449
SA,814589,NA,543.1,1083.1,10,59.999999999999986,60,60,480,1110,20,FALSE,FALSE,235,,Chelmsford St & Glen Ave,,42.612466617908,-71.3310998527577
SA,814590,NA,519.9666666666667,1124.9666666666667,11,60.5,65,60.5,480,1110,20,FALSE,FALSE,236,,Brookside St & Varnum Ave,,42.647695,-71.338155
SA,814591,NA,493.0833333333333,1033.0833333333333,7,89.99999999999999,90.00000000000006,90.00000000000003,480,1110,20,FALSE,FALSE,237,,Billerica Rd & Elliot St,,42.594063,-71.319773
SA,814592,NA,549.65,1116.9833333333333,20,29.85964912280702,32.66666666666674,32.66666666666665,480,1110,20,FALSE,FALSE,238,,Chelmsford St & Shaw St,,42.6308496119379,-71.3207442725862
SA,814593,NA,505,1045,7,90,90,90,480,1110,20,FALSE,FALSE,239,,Kidder Rd & Littleton Rd,,42.582323,-71.388589
SA,814594,NA,560,1100,10,60,60,60,480,1110,20,FALSE,FALSE,240,,Billerica Center,,42.573537,-71.278785
SA,814595,NA,476.98333333333335,1081.9833333333333,11,60.5,62.66666666666663,62.3666666666667,480,1110,20,FALSE,FALSE,241,,University Ave & 7th Ave,,42.657907,-71.333236
SA,814596,NA,429.15,1077.6,22,30.878571428571426,48.450000000000045,48.450000000000045,480,1110,20,FALSE,FALSE,242,,Rogers St & Waverly Ave,,42.6352221820726,-71.2925882594939
SA,814597,NA,501.85,1041.85,7,89.99999999999999,90,90,480,1110,20,FALSE,FALSE,243,,31 Littleton,,42.596255,-71.355958
SA,814598,NA,532,1072,10,60,60,60,480,1110,20,FALSE,FALSE,244,,Hannaford,,42.665301,-71.312328
SA,814599,NA,505.26666666666665,1045.2666666666667,7,90,90,90,480,1110,20,FALSE,FALSE,245,,313 Littleton,,42.580909,-71.391696
SA,814600,NA,470.96666666666664,1080.9666666666667,11,61.00000000000001,70,61.00000000000004,480,1110,20,FALSE,FALSE,246,,Westford St & Hastings St,,42.6350431934418,-71.3272412065355
SA,814601,NA,468.73333333333335,1039.35,20,30.03245614035087,30.616666666666674,30.616666666666674,480,1110,20,FALSE,FALSE,247,,Boston Rd & Collins Rae Ln,,42.5693158511141,-71.2759572155667
SA,814603,NA,495.85,1095.85,11,59.999999999999986,60,60,480,1110,20,FALSE,FALSE,249,,320 Nesmith,,42.636399,-71.293415
SA,814604,NA,524.2333333333333,1129.2333333333333,11,60.5,65,60.5,480,1110,20,FALSE,FALSE,250,,University Ave & 7th Ave,,42.6578990818857,-71.3335472185598
SA,814605,NA,427.25,1074.7333333333333,22,30.832539682539682,47.48333333333335,47.48333333333335,480,1110,20,FALSE,FALSE,251,,High St & Oak St,,42.6403810539753,-71.2995560147941
SA,814606,NA,516.8666666666667,1056.8666666666666,10,59.999999999999986,60,60,480,1110,20,FALSE,FALSE,252,,Lowell Superior Court,,42.6373733290082,-71.3089883962454
SA,814607,NA,479.23333333333335,1084.2333333333333,11,60.5,62.7166666666667,62.32666666666664,480,1110,20,FALSE,FALSE,253,,Mammoth Rd & W Meadow Rd,,42.655857197668,-71.3404844308784
SA,814608,NA,500.5833333333333,1040.5833333333333,10,59.99999999999999,60.00000000000006,60.000000000000014,480,1110,20,FALSE,FALSE,254,,Concord Rd & Richardson St,,42.556705,-71.269503
SA,814609,NA,492.51666666666665,1032.5166666666667,7,90,90,90,480,1110,20,FALSE,FALSE,255,,Billerica Rd & Omni Way,,42.591349,-71.317292
SA,814610,NA,507.26666666666665,1099.3166666666666,20,31.160526315789472,52.05000000000007,52.05000000000007,480,1110,20,FALSE,FALSE,256,,330 Boston Rd,,42.5689800592879,-71.2754814134063
SA,814611,NA,487.85,1087.85,11,59.999999999999986,60,60,480,1110,20,FALSE,FALSE,257,,Douglas Rd & Windward Rd,,42.6367385001184,-71.2761818830282
SA,814612,NA,519.85,1059.85,7,89.99999999999999,90,90,480,1110,20,FALSE,FALSE,258,,Littleton Rd & Robbins Rd,,42.555065854598,-71.4469163490863
SA,814613,NA,542.3666666666667,1082.3666666666666,10,59.999999999999986,60,60,480,1110,20,FALSE,FALSE,259,,Tyngsboro Rd & Locust St,,42.6816932715425,-71.3771827721378
SA,814614,NA,526.0333333333333,1066.0333333333333,7,90,90,90,480,1110,20,FALSE,FALSE,260,,Littleton Rd & Robbins Rd,,42.5547588641269,-71.4476205637569
SA,814615,NA,465.6333333333333,1065.6333333333334,11,60.000000000000014,60.000000000000114,60.000000000000014,480,1110,20,FALSE,FALSE,261,,334 Main,,42.5500561167374,-71.1761181094384
SA,814616,NA,562.8666666666667,1102.8666666666666,10,59.999999999999986,60,60,480,1110,20,FALSE,FALSE,262,,Tyngsboro Rd & Stewart St,,42.680123,-71.375476
SA,814617,NA,464.26666666666665,1064.2666666666667,11,60,60,60,480,1110,20,FALSE,FALSE,263,,Main St & Middlesex Ave,,42.549807782932,-71.1761046823053
SA,814618,NA,505.56666666666666,1129.1,20,32.81754385964912,60.00000000000006,41.17333333333334,480,1110,20,FALSE,FALSE,264,,Bridge St & 2nd St,,42.6493782047297,-71.3042945701795
SA,814619,NA,491,1031,10,60,60,60,480,1110,20,FALSE,FALSE,265,,Lowell Provision Aiken Ave,,42.657698,-71.313001
SA,814620,NA,500.96666666666664,1076.9666666666667,20,30.315789473684212,36.00000000000006,36,480,1110,20,FALSE,FALSE,266,,34 Central Square,,42.596083732152,-71.3518780613422
SA,814622,NA,508.81666666666666,1048.8166666666666,10,59.99999999999999,60.00000000000006,60.000000000000014,480,1110,20,FALSE,FALSE,268,,345 North Rd,,42.6281459920627,-71.3706461521149
SA,814623,NA,494.48333333333335,1034.4833333333333,10,60,60,60,480,1110,20,FALSE,FALSE,269,,Woburn St & Canterbury St,,42.615794,-71.287867
SA,814626,NA,487,1030,20,28.57894736842105,57,57,480,1110,20,FALSE,FALSE,272,,Chestnut Street Burlington,,42.5197159918855,-71.2114812036816
SA,814627,NA,520.7333333333333,1060.7333333333333,7,90,90,90,480,1110,20,FALSE,FALSE,273,,355 Littleton,,42.553906,-71.450617
SA,814629,NA,559.4,1108.45,17,34.315625000000004,60,60,480,1110,20,FALSE,FALSE,275,,Brick Kiln Rd & Sprague Ave,,42.6016103151354,-71.3031854676891
SA,814630,NA,483,1023,10,60,60,60,480,1110,20,FALSE,FALSE,276,,Lowell Superior Court,,42.6374513791654,-71.308813271164
SA,814631,NA,537.7333333333333,1077.7333333333333,7,90,90,90,480,1110,20,FALSE,FALSE,277,,360 Littleton,,42.5813190586596,-71.3904506391441
SA,814632,NA,487.68333333333334,1087.6833333333334,11,60.00000000000001,60.000000000000114,60.000000000000014,480,1110,20,FALSE,FALSE,278,,Main St & Veranda Ave,,42.6211695643108,-71.2614479461814
SA,814633,NA,506.48333333333335,1098.7,20,31.169298245614037,52.2166666666667,52.2166666666667,480,1110,20,FALSE,FALSE,279,,Boston Rd & Farmers Ln,,42.564971,-71.272188
SA,814634,NA,525.85,1065.85,7,89.99999999999999,90,90,480,1110,20,FALSE,FALSE,280,,364 Littleton,,42.5535763298183,-71.451152686814
SA,814635,NA,523.7,1063.7,10,60,60,60,480,1110,20,FALSE,FALSE,281,,Stevens St & D St,,42.6295125547537,-71.332655135407
SA,814636,NA,429.48333333333335,1078.15,22,30.888888888888893,48.66666666666674,48.66666666666663,480,1110,20,FALSE,FALSE,282,,Rogers St & Wellington Ave,,42.6341197478477,-71.2913073242613
SA,814637,NA,470,1040.0666666666666,20,30.00350877192982,30.06666666666672,30.06666666666672,480,1110,20,FALSE,FALSE,283,,Billerica Town Hall,,42.5624697441084,-71.2703890346745
SA,814638,NA,491.23333333333335,1031.2333333333333,10,60,60,60,480,1110,20,FALSE,FALSE,284,,Cambridge St & Van Norden Rd,,42.5230935269697,-71.2178010695338
SA,814641,NA,536.9666666666667,1076.9666666666667,7,90,90,90,480,1110,20,FALSE,FALSE,287,,Littleton Rd & Beth Ann Dr,,42.5789292067278,-71.3961000645352
SA,814646,NA,437.6166666666667,1037.6166666666666,11,59.999999999999986,60,60,480,1110,20,FALSE,FALSE,292,,Main St & Colab Rd,,42.620728,-71.260191
SA,814648,NA,427.6166666666667,1075.25,22,30.83968253968254,47.63333333333344,47.633333333333326,480,1110,20,FALSE,FALSE,294,,High St & Porter St,,42.6388270615162,-71.2988231830087
SA,814649,NA,485.18333333333334,1025.1833333333334,10,60.00000000000001,60.000000000000114,60.00000000000002,480,1110,20,FALSE,FALSE,295,,Cambridge St & Four Acre Dr,,42.522971,-71.217911
SA,814650,NA,525.75,1125.75,11,60,60,60,480,1110,20,FALSE,FALSE,296,,High St & Porter St,,42.6389112664323,-71.2986720768777
SA,814651,NA,506,1098.3166666666666,20,31.17456140350877,52.31666666666672,52.31666666666672,480,1110,20,FALSE,FALSE,297,,Billerica Town Hall,,42.5623232504611,-71.2700477761599
SA,814652,NA,486.7,1029.5833333333333,17,33.930208333333326,60.00000000000006,60,480,1110,20,FALSE,FALSE,298,,Brick Kiln Rd & Moore St,,42.60143,-71.303669
SA,814653,NA,465.3333333333333,1005.3333333333334,10,60.00000000000001,60.00000000000006,60.000000000000014,480,1110,20,FALSE,FALSE,299,,Pollard St & Waterview Ave,,42.5830011254768,-71.2846564576721
SA,814654,NA,484.85,1089.85,11,60.499999999999986,63,62.099999999999895,480,1110,20,FALSE,FALSE,300,,Varnum Ave & Barbara Terrace,,42.645692,-71.344741
SA,814655,NA,549.45,1116.5333333333333,20,29.84649122807017,32.91666666666674,32.91666666666674,480,1110,20,FALSE,FALSE,301,,Chelmsford St & Factory St,,42.6292141293468,-71.3215683119005
SA,814657,NA,508.28333333333336,1048.2833333333333,7,89.99999999999999,90,90,480,1110,20,FALSE,FALSE,303,,4 Technology Park Dr,,42.572572,-71.415035
SA,814658,NA,564.05,1104.05,10,60,60,60,480,1110,20,FALSE,FALSE,304,,Tyngsboro Rd & Nashua Rd,,42.679337,-71.364005
SA,814659,NA,466,1066,11,60,60,60,480,1110,20,FALSE,FALSE,305,,Mission Rd & Rte. 3A,,42.650708,-71.400036
SA,814660,NA,546.85,1086.85,10,59.999999999999986,60,60,480,1110,20,FALSE,FALSE,306,,Lakeview Ave & Cricones Way,,42.690737,-71.405368
SA,814661,NA,526.25,1066.25,10,60,60,60,480,1110,20,FALSE,FALSE,307,,Parkhurst Rd & Smith St,,42.6186886407113,-71.3610124408499
SA,814662,NA,510.2,1050.2,10,60.00000000000001,60.00000000000006,60.000000000000014,480,1110,20,FALSE,FALSE,308,,Pollard St & Call St,,42.5831938995953,-71.2847699067459
SA,814663,NA,525.3833333333333,1065.3833333333334,7,90.00000000000001,90.00000000000011,90.00000000000006,480,1110,20,FALSE,FALSE,309,,400 Littleton,,42.5503129000001,-71.460190725581
SA,814664,NA,510.31666666666666,1135,21,31.234166666666667,65,40.31666666666672,480,1110,20,FALSE,FALSE,310,,Merrimack St & Cardinal O Connell Pkwy,,42.6462076066004,-71.314835649156
SA,814666,NA,487.43333333333334,1087.4333333333334,11,60.00000000000001,60.000000000000114,60.000000000000014,480,1110,20,FALSE,FALSE,312,,Main St & Colab Rd,,42.620713,-71.259737
SA,814667,NA,501.93333333333334,1041.9333333333334,10,60.00000000000001,60.000000000000114,60.00000000000002,480,1110,20,FALSE,FALSE,313,,Middlesex Turnpike & Concord Rd,,42.5472786620708,-71.2798064473947
SA,814668,NA,505.3,1098.0166666666667,20,31.19561403508772,52.7166666666667,52.7166666666667,480,1110,20,FALSE,FALSE,314,,Boston Rd & Andover Rd,,42.5602642631559,-71.2691371361387
SA,814670,NA,471.5,1011.5,10,60,60,60,480,1110,20,FALSE,FALSE,316,,Boston Rd & Grace Ave,,42.557256,-71.267911
SA,814671,NA,533,1073,10,60,60,60,480,1110,20,FALSE,FALSE,317,,Village Square,,42.6000404269642,-71.3510847064002
SA,814673,NA,523.6,1063.6,10,59.999999999999986,60,60,480,1110,20,FALSE,FALSE,319,,Stevens St & B St,,42.6285442312859,-71.3324223276913
SA,814674,NA,525.5166666666667,1125.5166666666667,11,60,60,60,480,1110,20,FALSE,FALSE,320,,High St & Sherman St,,42.638056753703,-71.2982691791484
SA,814675,NA,427.8333333333333,1075.5333333333333,22,30.84285714285714,47.700000000000045,47.69999999999999,480,1110,20,FALSE,FALSE,321,,High St & Sherman St,,42.6379704170924,-71.298398005015
SA,814676,NA,588.6666666666666,1128.6666666666667,10,60.000000000000014,60.000000000000114,60.00000000000002,480,1110,20,FALSE,FALSE,322,,Bridge St & W 4th St,,42.6504662550241,-71.3036935286435
SA,814678,NA,498.4166666666667,1038.4166666666667,10,60.00000000000001,60.000000000000114,60.00000000000002,480,1110,20,FALSE,FALSE,324,,Billerica Ave & Caven Rd,,42.5970917020231,-71.2814525406338
SA,814679,NA,459.23333333333335,999.2333333333333,10,60,60,60,480,1110,20,FALSE,FALSE,325,,Lowell St & Franklin St,,42.5907932012334,-71.2943369636593
SA,814681,NA,482.3833333333333,1023.15,20,28.46140350877193,59.23333333333335,59.23333333333335,480,1110,20,FALSE,FALSE,327,,Chelmsford St & Waite St,,42.628652,-71.32196
SA,814682,NA,574.8333333333334,1114.8333333333333,10,59.999999999999986,60,60,480,1110,20,FALSE,FALSE,328,,Pleasant St & Greenmont Ave,,42.6674850433355,-71.308604413494
SA,814683,NA,517.4,1057.4,10,60.000000000000014,60.000000000000114,60.00000000000002,480,1110,20,FALSE,FALSE,329,,43 Highland,,42.6368003875002,-71.3103128982432
SA,814684,NA,503.4,1043.4,10,60.000000000000014,60.000000000000114,60.00000000000002,480,1110,20,FALSE,FALSE,330,,North Rd & Crosby Ln,,42.601290936121,-71.353569585575
SA,814685,NA,508.3833333333333,1108.3833333333334,11,60.000000000000014,60.000000000000114,60.000000000000014,480,1110,20,FALSE,FALSE,331,,Douglas Rd & Donald Terrace,,42.6342491283757,-71.2788418074734
SA,814686,NA,524.4833333333333,1064.4833333333333,7,90,90,90,480,1110,20,FALSE,FALSE,332,,King St & Shea St,,42.549929,-71.466277
SA,814687,NA,502.3,1042.3,10,59.99999999999999,60,60,480,1110,20,FALSE,FALSE,333,,Middlesex Turnpike & French St,,42.5441189475714,-71.2761480361164
SA,814688,NA,490.76666666666665,1030.7666666666667,10,60,60,60,480,1110,20,FALSE,FALSE,335,,Woburn St & Stavely St,,42.622923,-71.292145
SA,814690,NA,473.73333333333335,1013.7333333333333,10,60,60,60,480,1110,20,FALSE,FALSE,337,,Boston Rd & Cunningham Ln,,42.5539394435867,-71.264968006589
SA,814691,NA,549.2833333333333,1116.1166666666666,20,29.83333333333333,33.16666666666674,33.16666666666663,480,1110,20,FALSE,FALSE,338,,Chelmsford St & Parker St,,42.6276275127237,-71.3222548254658
SA,814693,NA,470.53333333333336,1075.5333333333333,11,60.49999999999999,63.89999999999998,61.38000000000002,480,1110,20,FALSE,FALSE,340,,Merrimack St & Colburn St,,42.646808,-71.315734
SA,814694,NA,504.31666666666666,1044.3166666666666,10,59.99999999999999,60.00000000000006,60.000000000000014,480,1110,20,FALSE,FALSE,341,,Boston Rd & Grace Ave,,42.557342,-71.267815
SA,814696,NA,428.1666666666667,1076,22,30.849206349206348,47.83333333333337,47.83333333333337,480,1110,20,FALSE,FALSE,343,,High St & Rogers St,,42.6365656199812,-71.2977192696077
SA,814697,NA,542.15,1082.15,7,90.00000000000001,90.00000000000011,90.00000000000006,480,1110,20,FALSE,FALSE,345,,Billerica Rd & Wilson St,,42.5980480085006,-71.3472336219389
SA,814698,NA,501.73333333333335,1077.7166666666667,20,30.314912280701755,35.98333333333335,35.98333333333335,480,1110,20,FALSE,FALSE,346,,Chelmsford St & Wilson St,,42.5989776982988,-71.3493724938869
SA,814699,NA,502.73333333333335,1042.7333333333333,10,60,60,60,480,1110,20,FALSE,FALSE,347,,Middlesex Tpk & Friendship St,,42.5403884923832,-71.2719107702641
SA,814701,NA,516.35,1121.35,11,60.499999999999986,65,60.5,480,1110,20,FALSE,FALSE,349,,Varnum Ave & Varnum Terrace,,42.6448632519435,-71.3482828776054
SA,814702,NA,503.75,1103.75,11,60,60,60,480,1110,20,FALSE,FALSE,350,,Andover St & Barasford Ave,,42.643606,-71.287076
SA,814703,NA,474.5833333333333,1014.5833333333334,10,60.00000000000001,60.00000000000006,60.000000000000014,480,1110,20,FALSE,FALSE,351,,493 Boston Rd,,42.5507269629346,-71.2633065366169
SA,814704,NA,475.26666666666665,1085.2666666666667,11,61,70,61,480,1110,20,FALSE,FALSE,352,,Princeton Blvd & Lauriat St,,42.633403,-71.350289
SA,814705,NA,490.96666666666664,1031.7,17,33.795833333333334,60.00000000000006,60,480,1110,20,FALSE,FALSE,353,,Brick Kiln Rd & Canal St,,42.5887837572126,-71.3071139046308
SA,814706,NA,501,1041,7,90,90,90,480,1110,20,FALSE,FALSE,354,,Chelmsford Center,,42.5982566003209,-71.3469374513833
SA,814710,NA,540.2166666666667,1080.2166666666667,10,60,60,60,480,1110,20,FALSE,FALSE,358,,Nashua Rd & Pare Ave,,42.679548,-71.365022
SA,814711,NA,503,1043,10,60,60,60,480,1110,20,FALSE,FALSE,359,,Nuttings Lake - Middlesex Tpk & Water St,,42.5382702902052,-71.2695149572069
SA,814712,NA,554,1094,10,60,60,60,480,1110,20,FALSE,FALSE,360,,Nuttings Lake - Middlesex Tpk & Water St,,42.5382189893952,-71.2692536467127
SA,814713,NA,485.23333333333335,1090.2333333333333,11,60.5,63,62.1,480,1110,20,FALSE,FALSE,361,,Varnum Ave & Meadow Rd,,42.644884,-71.349446
SA,814715,NA,525.3833333333333,1065.3833333333334,10,60.000000000000014,60.000000000000114,60.00000000000002,480,1110,20,FALSE,FALSE,363,,School St & Lawson St,,42.6362974372344,-71.3249091629023
SA,814716,NA,430.26666666666665,1079.4333333333334,22,30.912698412698415,49.16666666666674,49.16666666666663,480,1110,20,FALSE,FALSE,364,,Rogers St & Rea St,,42.6319292866016,-71.285941417933
SA,814717,NA,484.18333333333334,1027.7833333333333,17,33.974999999999994,60,59.99999999999997,480,1110,20,FALSE,FALSE,365,,Carlisle St & Marshall St,,42.6086573523108,-71.3050057776841
SA,814718,NA,501.43333333333334,1041.4333333333334,10,60.00000000000001,60.000000000000114,60.00000000000002,480,1110,20,FALSE,FALSE,366,,Boston Rd & Tufts Ln,,42.5511524736991,-71.2632993978358
SA,814719,NA,486.6333333333333,1086.6333333333334,11,60.000000000000014,60.000000000000114,60.000000000000014,480,1110,20,FALSE,FALSE,367,,530 Main,,42.6192816665239,-71.2532679686831
SA,814720,NA,523.2333333333333,1063.2333333333333,10,60,60,60,480,1110,20,FALSE,FALSE,368,,Saint Margaret's School,,42.625619,-71.331338
SA,814721,NA,472.3,1082.3,11,60.99999999999999,70,61,480,1110,20,FALSE,FALSE,369,,Westford St & Edson St,,42.634078,-71.335199
SA,814723,NA,503.53333333333336,1103.5333333333333,11,59.99999999999999,60,60,480,1110,20,FALSE,FALSE,371,,Andover St & Glenn Rd,,42.6440316163029,-71.2852382841027
SA,814724,NA,525,1065,14,41.53846153846154,90,90,480,1110,20,FALSE,FALSE,372,,IBM (55 King St),,42.5496475,-71.46796401
SA,814725,NA,490.75,1100.75,11,61,70,61,480,1110,20,FALSE,FALSE,373,,Westford St & Robbins St,,42.6338692498306,-71.3355854302829
SA,814726,NA,492.51666666666665,1092.5166666666667,11,60,60,60,480,1110,20,FALSE,FALSE,374,,Andover St & Luce St,,42.6439753070992,-71.2847669686993
SA,814727,NA,485.9,1085.9,11,60.000000000000014,60.000000000000114,60.000000000000014,480,1110,20,FALSE,FALSE,375,,Douglas Rd & Rogers St,,42.6308516002066,-71.2799209097828
SA,814728,NA,482.18333333333334,1022.1833333333333,10,59.99999999999999,60,60,480,1110,20,FALSE,FALSE,376,,558 Gorham,,42.634416,-71.308954
SA,814729,NA,492.73333333333335,1032.7333333333333,10,60,60,60,480,1110,20,FALSE,FALSE,377,,56 Chelmsford,,42.5846287944231,-71.3005483331515
SA,814730,NA,469.1,1069.1,11,59.999999999999986,60,60,480,1110,20,FALSE,FALSE,378,,Main St & Oakwood Rd,,42.567662,-71.185974
SA,814731,NA,529.5166666666667,1069.5166666666667,10,60,60,60,480,1110,20,FALSE,FALSE,379,,Steadman St & Melody Ln,,42.6130148273605,-71.3442461623299
SA,814732,NA,587.9833333333333,1127.9833333333333,10,60,60,60,480,1110,20,FALSE,FALSE,380,,Bridge St & 7th St,,42.6523673337098,-71.3028990563829
SA,814733,NA,515.8666666666667,1120.8666666666666,11,60.499999999999986,65,60.5,480,1110,20,FALSE,FALSE,381,,Varnum Ave & Daisy Dr,,42.644809,-71.350534
SA,814734,NA,525,1065,10,60,60,60,480,1110,20,FALSE,FALSE,382,,School St & Westford St,,42.6351592072801,-71.3250872344689
SA,814736,NA,509.55,1049.55,10,59.99999999999999,60,60,480,1110,20,FALSE,FALSE,384,,Smith St & Bellevue St,,42.618917,-71.357555
SA,814738,NA,487.6,1027.6,10,59.999999999999986,60,60,480,1110,20,FALSE,FALSE,386,,Lawrence St & Watson St,,42.6338098998144,-71.3025712637102
SA,814740,NA,545.5833333333334,1085.5833333333333,10,59.999999999999986,60,60,480,1110,20,FALSE,FALSE,388,,Chelmsford St & Avenue B,,42.6243893629002,-71.3235844374698
SA,814741,NA,490.55,1100.55,11,60.99999999999999,70,61,480,1110,20,FALSE,FALSE,389,,Westford St & Marlborough St,,42.6336952845125,-71.337068651938
SA,814742,NA,477.3,1017.3,10,59.99999999999999,60,60,480,1110,20,FALSE,FALSE,390,,Boston Rd & Wyman Rd,,42.5435403963744,-71.2533965462147
SA,814743,NA,494.3666666666667,1119.3666666666666,22,29.761904761904756,35,35,480,1110,20,FALSE,FALSE,391,,Rogers St & Wentworth Ave,,42.631506,-71.283535
SA,814744,NA,502,1102,11,60,60,60,480,1110,20,FALSE,FALSE,392,,Burnham Road and Andover Street,,42.6464272824819,-71.2723221448368
SA,814745,NA,510.9,1050.9,10,60.000000000000014,60.000000000000114,60.00000000000002,480,1110,20,FALSE,FALSE,393,,Parkhurst Rd & N Rd,,42.616321,-71.36328
SA,814746,NA,494.65,1091.5833333333333,14,45.91794871794871,56.933333333333394,56.933333333333394,480,1110,20,FALSE,FALSE,394,,6 Stuart St,,42.590568,-71.323898
SA,814747,NA,562.3166666666667,1110.1333333333334,17,34.23854166666667,60,60,480,1110,20,FALSE,FALSE,395,,Carlisle St & Marshall St,,42.608266,-71.304676
SA,814748,NA,501.35,1041.35,10,59.999999999999986,60,60,480,1110,20,FALSE,FALSE,396,,60 Humphrey St,,42.6594969233045,-71.2977891686991
SA,814749,NA,431.78333333333336,1116.4,44,15.921317829457365,51.61666666666662,27,480,1110,20,TRUE,TRUE,397,,Clark Rd & Clar Relocation Rd,,42.6311865026728,-71.2708702253455
SA,814750,NA,503.3833333333333,1043.3833333333334,10,60.000000000000014,60.000000000000114,60.00000000000002,480,1110,20,FALSE,FALSE,398,,Middlesex Tpk & Pearl Rd,,42.5328889870644,-71.2628030889809
SA,814752,NA,545.3833333333333,1085.3833333333334,10,60.000000000000014,60.000000000000114,60.00000000000002,480,1110,20,FALSE,FALSE,400,,Chelmsford St & Forest St,,42.6231100349876,-71.3237760017445
SA,814754,NA,522.9166666666666,1062.9166666666667,10,60.000000000000014,60.000000000000114,60.00000000000002,480,1110,20,FALSE,FALSE,402,,Stevens St & Midland St,,42.6230593982324,-71.3298779792123
SA,814755,NA,485.51666666666665,1090.5166666666667,11,60.5,63,62.1,480,1110,20,FALSE,FALSE,403,,Varnum Ave & Rule Ln,,42.645409281776,-71.3531249039036
SA,814756,NA,494.06666666666666,1119.0666666666666,22,29.76190476190476,35,35,480,1110,20,FALSE,FALSE,404,,Rogers St & Butman Rd,,42.630836,-71.281025
SA,814757,NA,499.28333333333336,1039.2833333333333,10,59.99999999999999,60,60,480,1110,20,FALSE,FALSE,405,,Boston Rd & Webb Brook Ln,,42.543945,-71.253465
SA,814758,NA,505,1045,10,60,60,60,480,1110,20,FALSE,FALSE,406,,3rd St & Reed St,,42.650024,-71.301391
SA,814759,NA,498.98333333333335,1038.9833333333333,10,60,60,60,480,1110,20,FALSE,FALSE,407,,Boston Rd & Webb Brook Rd,,42.54277,-71.252235
SA,814760,NA,478.55,1018.55,10,59.99999999999999,60,60,480,1110,20,FALSE,FALSE,408,,Boston Rd & Payson Rd,,42.5407995005643,-71.2477603750308
SA,814761,NA,430.65,1080.0666666666666,22,30.924603174603174,49.41666666666674,49.41666666666674,480,1110,20,FALSE,FALSE,409,,Rogers St & Butman Rd,,42.6308625625153,-71.2816155576255
SA,814762,NA,503.1,1103.1,11,59.999999999999986,60,60,480,1110,20,FALSE,FALSE,410,,Andover St & Douglas Rd,,42.6448118837849,-71.2814779177678
SA,814763,NA,500.9,1040.9,10,60.000000000000014,60.000000000000114,60.00000000000002,480,1110,20,FALSE,FALSE,411,,Concord Rd & Kenmar Dr,,42.553857,-71.270738
SA,814765,NA,557.0833333333334,1097.0833333333333,10,59.999999999999986,60,60,480,1110,20,FALSE,FALSE,413,,Concord Rd & Kenmar Dr,,42.5537183656202,-71.2705715463876
SA,814766,NA,535.55,1075.55,7,90,90,90,480,1110,20,FALSE,FALSE,414,,Littleton Rd & Tadmuck Rd,,42.573946,-71.405966
SA,814767,NA,484,1115.4333333333334,30,21.773563218390805,60,28.56666666666672,480,1110,20,FALSE,FALSE,415,,Walgreen's Pharmacy Plain St,,42.6256633885602,-71.3217505828385
SA,814768,NA,501,1101,21,30,34,34,480,1110,20,FALSE,FALSE,416,,Boys & Girls Club,,42.6383366218989,-71.3199869473007
SA,814769,NA,487.1666666666667,1027.1666666666667,10,60.00000000000001,60.000000000000114,60.00000000000002,480,1110,20,FALSE,FALSE,417,,Chelmsford St & Jenness St,,42.6218917092404,-71.3240058103729
SA,814770,NA,498.25,1038.25,10,60,60,60,480,1110,20,FALSE,FALSE,418,,Boston Rd & Payson Rd,,42.541026,-71.24787
SA,814772,NA,498,1038,10,60,60,60,480,1110,20,FALSE,FALSE,420,,Princeton Blvd Middlesex Plaza,,42.6327822088704,-71.3565962084417
SA,814774,NA,502.9,1102.9,11,60.000000000000014,60.000000000000114,60.000000000000014,480,1110,20,FALSE,FALSE,422,,Andover St & Stafford Rd,,42.6451411940127,-71.2799530058989
SA,814776,NA,505.8,1045.8,7,89.99999999999999,90,90,480,1110,20,FALSE,FALSE,424,,7 Littleton,,42.57827683583,-71.3979705924875
SA,814777,NA,492.4166666666667,1032.4166666666667,10,60.00000000000001,60.000000000000114,60.00000000000002,480,1110,20,FALSE,FALSE,425,,Sladen St & Dean Ave,,42.6624820444284,-71.3187744001382
SA,814778,NA,497.76666666666665,1074.1833333333334,20,30.337719298245617,36.41666666666674,36.41666666666663,480,1110,20,FALSE,FALSE,426,,Wilson St & Chelmsford St,,42.598977,-71.349117
SA,814779,NA,531.8666666666667,1071.8666666666666,10,59.999999999999986,60,60,480,1110,20,FALSE,FALSE,427,,North Rd & Dalton Rd,,42.6042369395186,-71.3543434631715
SA,814781,NA,485.68333333333334,1118.8833333333334,33,19.7875,26.800000000000068,26.799999999999955,480,1110,20,FALSE,TRUE,429,,Rogers St & Douglas Rd,,42.6304914947011,-71.2796059611464
SA,814782,NA,504.01666666666665,1044.0166666666667,10,60,60,60,480,1110,20,FALSE,FALSE,430,,North Rd & Dalton Rd,,42.6045195427697,-71.3542061289546
SA,814783,NA,493.2,1093.2,11,60.00000000000001,60.00000000000006,60.00000000000001,480,1110,20,FALSE,FALSE,431,,Andover St & Clark Rd,,42.6451925243014,-71.2789231874564
SA,814784,NA,485.6,1085.6,11,59.999999999999986,60,60,480,1110,20,FALSE,FALSE,432,,Main St & Jerome Rd,,42.616473376411,-71.245512114285
SA,814785,NA,544.9,1084.9,10,60.000000000000014,60.000000000000114,60.00000000000002,480,1110,20,FALSE,FALSE,433,,Chelmsford St & Wellman St,,42.6199013040892,-71.323984466261
SA,814786,NA,514.5333333333333,1119.5333333333333,11,60.5,65,60.5,480,1110,20,FALSE,FALSE,434,,Varnum Ave & Townsend Ave,,42.645831,-71.356586
SA,814787,NA,488,1088,11,60,60,60,480,1110,20,FALSE,FALSE,435,,Princeton Blvd Middlesex Plaza,,42.6329018212764,-71.3567251786093
SA,814788,NA,481.5833333333333,1021.5833333333334,10,60.00000000000001,60.00000000000006,60.000000000000014,480,1110,20,FALSE,FALSE,436,,Boston Rd & Allen Rd,,42.5350491568216,-71.2367382889345
SA,814789,NA,487.3666666666667,1027.3666666666666,10,59.999999999999986,60,60,480,1110,20,FALSE,FALSE,437,,Chelmsford St & Wellman St,,42.6200662551704,-71.3241438486575
SA,814791,NA,522.5666666666667,1062.5666666666666,10,59.999999999999986,60,60,480,1110,20,FALSE,FALSE,439,,Stevens St & Jenness St,,42.6203530418952,-71.3280447486204
SA,814793,NA,516.3833333333333,1056.3833333333334,10,60.000000000000014,60.000000000000114,60.00000000000002,480,1110,20,FALSE,FALSE,441,,74 Boston Rd,,42.593687,-71.297407
SA,814794,NA,440.1333333333333,1040.1333333333334,11,60.000000000000014,60.000000000000114,60.000000000000014,480,1110,20,FALSE,FALSE,442,,Main St & Marshall St,,42.616104,-71.244787
SA,814795,NA,473.76666666666665,1083.7666666666667,11,61,70,61,480,1110,20,FALSE,FALSE,443,,Westford St & Gertrude Ave,,42.6325022013269,-71.3429034741999
SA,814796,NA,503.51666666666665,1043.5166666666667,10,60,60,60,480,1110,20,FALSE,FALSE,444,,Middlesex Tpk & Manning Rd,,42.5310409013677,-71.2606187697721
SA,814797,NA,504.1333333333333,1044.1333333333334,10,60.000000000000014,60.000000000000114,60.00000000000002,480,1110,20,FALSE,FALSE,445,,Beech St & 6th St,,42.651701,-71.29862
SA,814798,NA,561.9,1109.8166666666666,17,34.244791666666664,60,60,480,1110,20,FALSE,FALSE,446,,76 Carlisle,,42.6071328320931,-71.3032453221393
SA,814801,NA,495.48333333333335,1035.4833333333333,10,60,60,60,480,1110,20,FALSE,FALSE,449,,Boston Rd & Shawsheen Rd,,42.5351566889173,-71.2377739301095
SA,814804,NA,502.56666666666666,1102.5666666666666,11,59.99999999999999,60.00000000000006,60.00000000000001,480,1110,20,FALSE,FALSE,452,,Andover St & Trull Ln,,42.6456849741051,-71.2771278765479
SA,814807,NA,474,1084,11,61,70,61,480,1110,20,FALSE,FALSE,455,,Westford St & Pine St,,42.63208,-71.344035
SA,814808,NA,483.01666666666665,1023.0166666666667,10,60,60,60,480,1110,20,FALSE,FALSE,456,,Boston Rd & Greenville St,,42.5306480229964,-71.2288861081904
SA,814809,NA,502.2,1042.2,7,90.00000000000001,90.00000000000006,90.00000000000003,480,1110,20,FALSE,FALSE,457,,79 Littleton,,42.595025,-71.359446
SA,814811,NA,472.8833333333333,1077.8833333333334,11,60.500000000000014,63.41666666666663,61.7666666666668,480,1110,20,FALSE,FALSE,459,,Merrimack St & Spalding St,,42.649755999999996,-71.321967
SA,814812,NA,484.98333333333335,1118.5166666666667,33,19.797916666666666,26.466666666666697,26.466666666666697,480,1110,20,FALSE,TRUE,460,,Rogers St & Village St,,42.6296361543401,-71.2765373515168
SA,814813,NA,451.51666666666665,1021.2,17,35.60520833333334,60,60,480,1110,20,FALSE,FALSE,461,,Gorham St & Ellsworth St,,42.630615,-71.308268
SA,814814,NA,503.6333333333333,1043.6333333333334,10,60.000000000000014,60.000000000000114,60.00000000000002,480,1110,20,FALSE,FALSE,462,,Middlesex Tpk & Lexington Rd,,42.5291179699005,-71.25841867423
SA,814815,NA,462,1062,21,30,55,55,480,1110,20,FALSE,FALSE,463,,Chelmsford Senior Center,,42.639824,-71.391279
SA,814816,NA,491.96666666666664,1031.9666666666667,10,60.00000000000001,60.00000000000006,60.000000000000014,480,1110,20,FALSE,FALSE,464,,Chelmsford Rd & Executive Park Dr,,42.587745,-71.307036
SA,814817,NA,483.1166666666667,1083.1166666666666,21,29.999999999999993,40.31666666666672,40.31666666666672,480,1110,20,FALSE,FALSE,465,,80 Drum Hill (Mall Entrance),,42.624039670059,-71.3621166441803
SA,814818,NA,483.3333333333333,1083.3333333333333,11,59.99999999999999,60.00000000000006,60.00000000000001,480,1110,20,FALSE,FALSE,466,,East St & Spaulding Ct,,42.611535,-71.229731
SA,814819,NA,540.3833333333333,1080.3833333333334,7,90.00000000000001,90.00000000000011,90.00000000000006,480,1110,20,FALSE,FALSE,467,,80 Littleton,,42.5949862688177,-71.359203697272
SA,814820,NA,487.5833333333333,1027.5833333333333,10,59.99999999999999,60.00000000000006,60.000000000000014,480,1110,20,FALSE,FALSE,468,,Chelmsford St & Albert St,,42.6181838015433,-71.3248605754047
SA,814821,NA,522.2833333333333,1062.2833333333333,10,60,60,60,480,1110,20,FALSE,FALSE,469,,Stevens St & Albert St,,42.618109,-71.326551
SA,814822,NA,483.8333333333333,1023.8333333333334,10,60.00000000000001,60.00000000000006,60.000000000000014,480,1110,20,FALSE,FALSE,470,,Boston Rd & Pinedale Ave,,42.526946,-71.225876
SA,814823,NA,520.95,1060.95,10,60,60,60,480,1110,20,FALSE,FALSE,471,,Gorham St & Riverneck Rd,,42.612353,-71.302489
SA,814824,NA,528.8333333333334,1068.8333333333333,10,59.999999999999986,60,60,480,1110,20,FALSE,FALSE,472,,Steadman & Bowl Rd,,42.616451,-71.345685
SA,814825,NA,493.6166666666667,1093.6166666666666,11,59.999999999999986,60,60,480,1110,20,FALSE,FALSE,473,,Andover St & Remington St,,42.6459427876155,-71.2754428079868
SA,814826,NA,455.3333333333333,995.3333333333334,10,60.00000000000001,60.00000000000006,60.000000000000014,480,1110,20,FALSE,FALSE,474,,83 Gorham,,42.6082015699672,-71.3012638964793
SA,814827,NA,493.78333333333336,1033.7833333333333,10,59.99999999999999,60,60,480,1110,20,FALSE,FALSE,475,,Boston Rd & Cardington Ave,,42.531124,-71.229068
SA,814828,NA,556.85,1107.35,17,34.40624999999999,60,60,480,1110,20,FALSE,FALSE,476,,84 Brick Kiln,,42.5960984182642,-71.3051188878312
SA,814829,NA,487.75,1027.75,10,60,60,60,480,1110,20,FALSE,FALSE,477,,Chelmsford St & Stevens St,,42.61703,-71.325439
SA,814830,NA,488.6166666666667,1088.6166666666666,11,59.999999999999986,60,60,480,1110,20,FALSE,FALSE,478,,Princeton St & Corey St,,42.6336096542835,-71.3621063859916
SA,814831,NA,502.25,1102.25,11,60,60,60,480,1110,20,FALSE,FALSE,479,,Andover St & Holbrook Ave,,42.6462868650552,-71.2743591597088
SA,814832,NA,496.01666666666665,1036.0166666666667,10,60,60,60,480,1110,20,FALSE,FALSE,480,,Princeton St & Corey St,,42.6334973078911,-71.3621501588234
SA,814833,NA,484.85,1084.85,11,59.999999999999986,60,60,480,1110,20,FALSE,FALSE,481,,Main St & Old Boston Rd,,42.6144268942752,-71.239754301472
SA,814834,NA,575.6166666666667,1115.6166666666666,10,59.999999999999986,60,60,480,1110,20,FALSE,FALSE,482,,Greenmont Ave & Vermont Ave,,42.6710629041235,-71.308594278149
SA,814835,NA,474.53333333333336,1074.5333333333333,11,59.99999999999999,60,60,480,1110,20,FALSE,FALSE,483,,Livingston St & Ironwood Ln,,42.5919526222083,-71.206210865502
SA,814836,NA,544.4833333333333,1084.4833333333333,10,60,60,60,480,1110,20,FALSE,FALSE,484,,850 Chelmsford,,42.617376,-71.32508
SA,814837,NA,440.93333333333334,1040.9333333333334,11,60.00000000000001,60.000000000000114,60.000000000000014,480,1110,20,FALSE,FALSE,485,,Main St & Old Boston Rd,,42.614335679921,-71.2399526843863
SA,814838,NA,486.15,1091.15,11,60.500000000000014,63,62.1000000000001,480,1110,20,FALSE,FALSE,486,,Varnum Ave & Totman Rd,,42.645101992057,-71.3608771209072
SA,814839,NA,491.53333333333336,1031.5333333333333,10,59.99999999999999,60,60,480,1110,20,FALSE,FALSE,487,,Lakeview Ave & W 6th St,,42.659522,-71.315279
SA,814840,NA,496.8833333333333,1036.8833333333334,10,60.000000000000014,60.000000000000114,60.00000000000002,480,1110,20,FALSE,FALSE,488,,86 Chelmsford Street,,42.601414,-71.347363
SA,814841,NA,519.8,1059.8,10,60,60,60,480,1110,20,FALSE,FALSE,489,,86 Gorham,,42.6079380581225,-71.3010334951366
SA,814842,NA,489.2,1099.2,11,61.00000000000001,70,61.00000000000004,480,1110,20,FALSE,FALSE,490,,Westford St & Mariposa Ave,,42.630884398239,-71.3469345763388
SA,814843,NA,466.3666666666667,1076.3666666666666,31,20.33333333333333,55.34999999999991,45.35000000000002,480,1110,20,FALSE,FALSE,491,,Hale St & YMCA Dr,,42.6344148797399,-71.3142235975532
SA,814844,NA,561.4333333333333,1109.45,17,34.25104166666667,60,60,480,1110,20,FALSE,FALSE,492,,Carlisle St & Biltmore Ave,,42.605829,-71.301288
SA,814845,NA,492.8333333333333,1032.8333333333333,10,59.99999999999999,60.00000000000006,60.000000000000014,480,1110,20,FALSE,FALSE,493,,Boston Rd & Pinedale Ave,,42.5273015562281,-71.2258471624741
SA,814846,NA,555.25,1106.45,17,34.45,60,60,480,1110,20,FALSE,FALSE,494,,9 Brick Kiln Rd,,42.5899200197021,-71.3062381849271
SA,814847,NA,456.93333333333334,1146.9333333333334,46,15.333333333333334,30,17.16666666666663,480,1110,20,TRUE,TRUE,495,,Middlesex St & Moulton Ave,,42.6418423890436,-71.3089303087365
SA,814849,NA,490,1107,24,26.82608695652174,66,49,480,1110,20,FALSE,FALSE,497,,UPS (90 Brick Kiln Rd),,42.594107,-71.30519
SA,814850,NA,492.26666666666665,1032.2666666666667,10,60,60,60,480,1110,20,FALSE,FALSE,498,,Boston Rd & Callahan St,,42.5256180115209,-71.2233406462594
SA,814851,NA,544,1084,10,60,60,60,480,1110,20,FALSE,FALSE,499,,Cross Point Tower,,42.6144972958967,-71.326999632846
SA,814852,NA,553.15,1093.15,10,60.000000000000014,60.000000000000114,60.00000000000002,480,1110,20,FALSE,FALSE,500,,Middlesex Tpk & Suburban Park Dr,,42.5269364879735,-71.2557355280053
SA,814855,NA,489,1099,11,61,70,61,480,1110,20,FALSE,FALSE,503,,Westford St & Steadman St,,42.6302560532089,-71.348321831611
SA,814856,NA,494.23333333333335,1094.2333333333333,11,60,60,60,480,1110,20,FALSE,FALSE,504,,910 Andover Street,,42.646634,-71.271408
SA,814857,NA,567.6833333333333,1107.6833333333334,7,90.00000000000001,90.00000000000011,90.00000000000006,480,1110,20,FALSE,FALSE,505,,Gorham St & Carter St,,42.6297821115488,-71.3081303206731
SA,814860,NA,497.51666666666665,1037.5166666666667,10,60,60,60,480,1110,20,FALSE,FALSE,508,,Bridge St & 13th St,,42.657213,-71.303336
SA,814861,NA,488,1028,10,60,60,60,480,1110,20,FALSE,FALSE,509,,Cross Point Tower,,42.6151587357173,-71.3267485782447
SA,814862,NA,525.3666666666667,1107.5333333333333,17,36.385416666666664,60,60,480,1110,20,FALSE,FALSE,510,,Gorham St & Moore St,,42.6291424390055,-71.308120715918
SA,814863,NA,451.75,1021.3833333333333,17,35.60208333333333,60,60,480,1110,20,FALSE,FALSE,511,,Gorham St & Dix St,,42.6291907492164,-71.3082793184853
SA,814865,NA,484.3,1084.3,11,59.99999999999999,60,60,480,1110,20,FALSE,FALSE,513,,Main St & Summer St,,42.61296,-71.235667
SA,814866,NA,492,1032,10,60,60,60,480,1110,20,FALSE,FALSE,514,,Lakeview Ave & Campaw St,,42.661055,-71.317228
SA,814867,NA,485.23333333333335,1025.2333333333333,10,60,60,60,480,1110,20,FALSE,FALSE,515,,Boston Rd & Cunningham St,,42.6214817859939,-71.3122346527236
SA,814868,NA,559.1333333333333,1099.1333333333334,10,60.000000000000014,60.000000000000114,60.00000000000002,480,1110,20,FALSE,FALSE,516,,Lakeview Ave & Christine Ave,,42.685909,-71.397442
SA,814869,NA,504.6166666666667,1104.6166666666666,11,59.999999999999986,60,60,480,1110,20,FALSE,FALSE,517,,Wentworth Ave & Mansur St,,42.6405547413164,-71.2876894856292
SA,814870,NA,441.55,1041.55,11,59.99999999999999,60,60,480,1110,20,FALSE,FALSE,518,,Main St & Summer St,,42.6130117154695,-71.2361993573182
SA,814871,NA,494.6166666666667,1094.6166666666666,11,59.999999999999986,60,60,480,1110,20,FALSE,FALSE,519,,Burnham Rd & Florence St,,42.648926,-71.272606
SA,814872,NA,484,1084,11,60,60,60,480,1110,20,FALSE,FALSE,520,,Tewksbury Town Hall,,42.6122067007673,-71.2332689533729
SA,814873,NA,543.5833333333334,1083.5833333333333,7,89.99999999999999,90,90,480,1110,20,FALSE,FALSE,521,,Billerica Rd & Hildreth St,,42.5991652828479,-71.3425400974456
SA,814874,NA,565.9666666666667,1105.9666666666667,10,60,60,60,480,1110,20,FALSE,FALSE,522,,Chelmsford Rd & Executive Park Dr,,42.587739,-71.306565
SA,814875,NA,455.25,1055.25,11,60,60,60,480,1110,20,FALSE,FALSE,523,,Main St & Hill St,,42.5862678935864,-71.199371226145
SA,814877,NA,500.2,1040.2,7,90.00000000000001,90.00000000000006,90.00000000000003,480,1110,20,FALSE,FALSE,525,,Billerica Rd & Hildreth St,,42.599279,-71.342649
SA,814879,NA,487.71666666666664,1097.7166666666667,11,61.00000000000001,70,61.00000000000004,480,1110,20,FALSE,FALSE,528,,Across From 1075 Westford St,,42.6295680229184,-71.3541011350382
SA,814880,NA,501.25,1041.25,10,60,60,60,480,1110,20,FALSE,FALSE,529,,Concord Rd & Campbell Rd,,42.550501,-71.273647
SA,814882,NA,452.68333333333334,1022.1166666666667,17,35.58958333333334,60,60,480,1110,20,FALSE,FALSE,532,,Gorham St & O'Connor Dr,,42.623731,-71.306371
SA,814883,NA,483.28333333333336,1023.2833333333333,7,89.99999999999999,90,90,480,1110,20,FALSE,FALSE,533,,Carlisle St & Devine Ave,,42.6152450130902,-71.3059734454703
SA,814884,NA,452.98333333333335,1022.35,17,35.58541666666667,60,60,480,1110,20,FALSE,FALSE,535,,Gorham St & Lundberg St,,42.6219977799098,-71.3057061981771
SA,814885,NA,456,996,10,60,60,60,480,1110,20,FALSE,FALSE,536,,Gorham St & Carlisle St,,42.604401397667,-71.299558922803
SA,814886,NA,453.3333333333333,1022.6166666666667,17,35.58020833333333,60,60,480,1110,20,FALSE,FALSE,537,,Gorham St & Corbett St,,42.6199841116083,-71.3050646778943
SA,814887,NA,488.18333333333334,1028.1833333333334,10,60.00000000000001,60.000000000000114,60.00000000000002,480,1110,20,FALSE,FALSE,538,,Middlesex St & Foster St,,42.638414,-71.339624
SA,814888,NA,453.45,1022.7166666666667,17,35.579166666666666,60,60,480,1110,20,FALSE,FALSE,539,,Gorham St & Cosgrove St,,42.6192263293929,-71.3048325762564
SA,814890,NA,489,1029,10,60,60,60,480,1110,20,FALSE,FALSE,541,,Middlesex St & Pawtucket St,,42.6383157310335,-71.3427680046511
SA,814891,NA,522.15,1062.15,10,60.000000000000014,60.000000000000114,60.00000000000002,480,1110,20,FALSE,FALSE,542,,Gorham St & Rivers Edge Rd,,42.6168984305243,-71.303951546857
SA,814892,NA,504.3666666666667,1044.3666666666666,10,59.999999999999986,60,60,480,1110,20,FALSE,FALSE,543,,Middlesex Tpk & Oak Park Dr,,42.519058069755,-71.2467633047185
SA,814894,NA,567.6166666666667,1107.6166666666666,10,59.999999999999986,60,60,480,1110,20,FALSE,FALSE,545,,Lakeview Ave & Litchfield Ave,,42.676433,-71.336721
SA,814895,NA,539.7166666666667,1079.7166666666667,7,90,90,90,480,1110,20,FALSE,FALSE,546,,Littleton Rd & Patriot Way,,42.5921780662639,-71.3681066183853
SA,814896,NA,539.3,1079.3,7,90,90,90,480,1110,20,FALSE,FALSE,547,,Across From 181 Littleton,,42.5896456320785,-71.3730147602706
SA,814897,NA,539,1079,7,90,90,90,480,1110,20,FALSE,FALSE,548,,Littleton Rd & Hunt Rd,,42.5878669407095,-71.3768609925538
SA,814898,NA,466.95,1066.95,11,60.00000000000001,60.00000000000006,60.00000000000001,480,1110,20,FALSE,FALSE,549,,Across From 207 Main,,42.5563299091077,-71.1808954325441
SA,814899,NA,564.4166666666666,1104.4166666666667,10,60.000000000000014,60.000000000000114,60.00000000000002,480,1110,20,FALSE,FALSE,550,,Across From 2189 Lakeview,,42.680062,-71.360431
SA,814900,NA,498.73333333333335,1129.2833333333333,22,30.026190476190475,30.549999999999955,30.549999999999955,480,1110,20,FALSE,FALSE,551,,Church St & Warren St,,42.6417278588884,-71.3040174751558
SA,814901,NA,515.65,1055.65,10,60.000000000000014,60.000000000000114,60.00000000000002,480,1110,20,FALSE,FALSE,552,,Gorham St & Appleton St,,42.6406753266988,-71.3088485810352
SA,814902,NA,483.4,1088.4,11,60.500000000000014,63,62.1000000000001,480,1110,20,FALSE,FALSE,553,,Varnum Ave & Brookside St,,42.6472195516437,-71.3389792230843
SA,814903,NA,516,1056,7,90,90,90,480,1110,20,FALSE,FALSE,554,,Residence Inn,,42.561002,-71.432632
SA,814904,NA,471.4,1071.4,11,60.000000000000014,60.000000000000114,60.000000000000014,480,1110,20,FALSE,FALSE,555,,Across From 2341 Main,,42.57879,-71.193447
SA,814905,NA,463.05,1053.9,20,31.097368421052636,50.850000000000136,50.85000000000002,480,1110,20,FALSE,FALSE,556,,Old Elm St & Wilson St,,42.590459,-71.285727
SA,814907,NA,459.53333333333336,1149.5333333333333,35,20.294117647058822,30,30,480,1110,20,TRUE,FALSE,558,,Middlesex St & Pearl St,,42.640675,-71.312848
SA,814909,NA,483.78333333333336,1027.2166666666667,17,33.96458333333334,60.00000000000006,60,480,1110,20,FALSE,FALSE,560,,Carlisle St & Riverneck Rd,,42.6115577985008,-71.3064654403852
SA,814910,NA,473.06666666666666,1128.45,22,31.208730158730162,55.38333333333344,55.383333333333326,480,1110,20,TRUE,FALSE,561,,Merrimack St & Ash St,,42.644368,-71.300552
SA,814912,NA,486.68333333333334,1026.6833333333334,10,60.00000000000001,60.000000000000114,60.00000000000002,480,1110,20,FALSE,FALSE,563,,Lawrence St & Mill St,,42.6376362220286,-71.3040300971146
SA,814913,NA,506.4,1106.4,11,60.000000000000014,60.000000000000114,60.000000000000014,480,1110,20,FALSE,FALSE,564,,Hovey St & Florida St,,42.6389346220827,-71.2807999377728
SA,814914,NA,549.8166666666667,1089.8166666666666,10,59.999999999999986,60,60,480,1110,20,FALSE,FALSE,565,,Chelmsford St & Lincoln St,,42.6320626139516,-71.3193593317243
SA,814916,NA,577.9,1117.9,10,60.000000000000014,60.000000000000114,60.00000000000002,480,1110,20,FALSE,FALSE,567,,Chelmsford St & Cambridge St,,42.6338604006125,-71.3180892073402
SA,814917,NA,457.6,997.6,10,60,60,60,480,1110,20,FALSE,FALSE,568,,Boston Rd & Post St,,42.5970267522386,-71.2986550073879
SA,814918,NA,553.5,1093.5,7,90,90,90,480,1110,20,FALSE,FALSE,569,,Billerica Rd & Omni Way,,42.591158,-71.317425
SA,814919,NA,574,1114,10,60,60,60,480,1110,20,FALSE,FALSE,570,,Hannaford,,42.6650820226468,-71.3127777874687
SA,814921,NA,526.15,1126.15,11,60.000000000000014,60.000000000000114,60.000000000000014,480,1110,20,FALSE,FALSE,572,,High St & Oak St,,42.6402581833018,-71.299308169767
SA,814922,NA,489,1089,11,60,60,60,480,1110,20,FALSE,FALSE,573,,Hovey St & Douglas Rd,,42.639801,-71.278431
SA,814923,NA,469.6,1039.85,20,30.013157894736835,30.25,30.25,480,1110,20,FALSE,FALSE,574,,Boston Rd & Lasallette Rd,,42.564611,-71.272072
SA,814924,NA,556.85,1096.85,10,59.999999999999986,60,60,480,1110,20,FALSE,FALSE,575,,Lakeview Ave & Frost Rd,,42.692213,-71.411044
SA,814925,NA,522.9,1062.9,7,90.00000000000001,90.00000000000011,90.00000000000006,480,1110,20,FALSE,FALSE,576,,Across From 400 Littleton,,42.550754,-71.459396
SA,814927,NA,502,1042,10,60,60,60,480,1110,20,FALSE,FALSE,578,,Beacon St & Methuen St,,42.657007,-71.298362
SA,814928,NA,496,1036,10,60,60,60,480,1110,20,FALSE,FALSE,579,,Riverview Commerce Center,,42.6129479987651,-71.2867772152455
SA,814929,NA,532.4166666666666,1072.4166666666667,10,60.000000000000014,60.000000000000114,60.00000000000002,480,1110,20,FALSE,FALSE,580,,North Rd & Worthen St,,42.6011843114866,-71.3536797342516
SA,814930,NA,525.2,1065.2,7,90,90,90,480,1110,20,FALSE,FALSE,581,,Across From 439 Littleton,,42.5501460975796,-71.4641459955947
SA,814932,NA,523.4333333333333,1063.4333333333334,10,60.000000000000014,60.000000000000114,60.00000000000002,480,1110,20,FALSE,FALSE,583,,Stevens St & Parker St,,42.627128,-71.33206
SA,814933,NA,549.15,1115.8166666666666,20,29.82456140350877,33.333333333333485,33.33333333333328,480,1110,20,FALSE,FALSE,584,,Chelmsford St & Plain St,,42.6265139179152,-71.3227436831361
SA,814934,NA,474.1333333333333,1074.1333333333334,11,60.000000000000014,60.000000000000114,60.000000000000014,480,1110,20,FALSE,FALSE,585,,Middlesex St & Gay St,,42.6379857272668,-71.3787467082331
SA,814935,NA,509.1166666666667,1109.1166666666666,11,59.999999999999986,60,60,480,1110,20,FALSE,FALSE,586,,Douglas Rd & Rogers St,,42.6309601910078,-71.2800504394133
SA,814937,NA,476,1086,11,61,70,61,480,1110,20,FALSE,FALSE,588,,Princeton Blvd & Wood St,,42.6329735715196,-71.3548789452988
SA,814938,NA,486,1026,10,60,60,60,480,1110,20,FALSE,FALSE,589,,Church St & Lawrence St,,42.640626899731,-71.3044544534747
SA,814939,NA,489.93333333333334,1099.9333333333334,11,61.00000000000001,70,61.0000000000001,480,1110,20,FALSE,FALSE,590,,Westford St & Tyler Park,,42.6328097072379,-71.3416774430702
SA,814940,NA,472.23333333333335,1077.2333333333333,11,60.5,63.549999999999955,61.66000000000004,480,1110,20,FALSE,FALSE,591,,Merrimack St & Aiken St,,42.6489513892605,-71.3202385211064
SA,814941,NA,553.4833333333333,1093.4833333333333,10,60,60,60,480,1110,20,FALSE,FALSE,592,,Middlesex Turnpike & Manning Rd,,42.531544,-71.261039
SA,814942,NA,483.1333333333333,1023.1333333333333,7,90,90,90,480,1110,20,FALSE,FALSE,593,,Carlisle St & Suttle Ave,,42.616265966143,-71.3054240685697
SA,814943,NA,458.56666666666666,998.5666666666667,10,60.00000000000001,60.00000000000006,60.000000000000014,480,1110,20,FALSE,FALSE,594,,Boston Rd & Alpine St,,42.5924503734203,-71.2971434399089
SA,814944,NA,488.71666666666664,1030.4333333333334,17,33.85729166666667,60,59.99999999999997,480,1110,20,FALSE,FALSE,595,,Across From 80 Brick Kiln,,42.5970481187813,-71.3051116667336
SA,814945,NA,538.35,1078.35,10,59.999999999999986,60,60,480,1110,20,FALSE,FALSE,596,,Chelmsford St & Alpine St,,42.601352,-71.347197
SA,814946,NA,443.0833333333333,1043.0833333333333,11,59.99999999999999,60.00000000000006,60.00000000000001,480,1110,20,FALSE,FALSE,597,,East St & Preservation Ln,,42.611398,-71.229413
SA,814947,NA,553.35,1093.35,10,59.999999999999986,60,60,480,1110,20,FALSE,FALSE,599,,Across From 805 Middlesex Tpk,,42.529664619906,-71.2588726221348
SA,814949,NA,489.3333333333333,1030.6833333333334,17,33.83437500000001,60,59.99999999999997,480,1110,20,FALSE,FALSE,601,,Across From 84 Brick Kiln,,42.5956153080461,-71.3051778314336
SA,814950,NA,572.9833333333333,1112.9833333333333,10,60,60,60,480,1110,20,FALSE,FALSE,602,,Boston Rd & Marriner St,,42.622507,-71.313051
SA,814951,NA,491,1031,10,60,60,60,480,1110,20,FALSE,FALSE,603,,UPS (Across From 90 Brick Kiln),,42.593921,-71.305359
SA,814952,NA,503.8,1043.8,10,59.99999999999999,60,60,480,1110,20,FALSE,FALSE,604,,Middlesex Tpk & Suburban Park Dr,,42.5268607810049,-71.2558273500493
SA,814954,NA,515.6833333333333,1055.6833333333334,10,60.000000000000014,60.000000000000114,60.00000000000002,480,1110,20,FALSE,FALSE,608,,Lowell St & Boston Rd,,42.5908793887894,-71.2961649892666
SA,814956,NA,526.35,1066.35,7,89.99999999999999,90,90,480,1110,20,FALSE,FALSE,611,,Littleton Rd & Concord Rd,,42.5552167283275,-71.4410068770587
SA,814958,NA,528,1068,7,90,90,90,480,1110,20,FALSE,FALSE,613,,Western Regency Hotel,,42.5637722372064,-71.4284226291796
SA,814959,NA,477.4,1077.4,11,60.000000000000014,60.000000000000114,60.000000000000014,480,1110,20,FALSE,FALSE,614,,Livingston St & Delaney Dr,,42.603582,-71.210355
SA,814960,NA,564.65,1104.65,10,60.000000000000014,60.000000000000114,60.00000000000002,480,1110,20,FALSE,FALSE,615,,Lakeview Ave & Florence St,,42.681106,-71.358136
SA,814962,NA,472.0833333333333,1072.0833333333333,11,59.99999999999999,60.00000000000006,60.00000000000001,480,1110,20,FALSE,FALSE,617,,Main St (Across From Haffners Car Wash),,42.582205,-71.195679
SA,814965,NA,506.23333333333335,1046.2333333333333,10,60,60,60,480,1110,20,FALSE,FALSE,620,,Bridge St & Amory St (Across From Mass Mills),,42.646848,-71.306398
SA,814967,NA,490.5,1090.5,11,60,60,60,480,1110,20,FALSE,FALSE,622,,Main St & Old Main St (Motel 6),,42.6260279416675,-71.2684456502456
SA,814969,NA,517.1,1057.1,7,89.99999999999999,90,90,480,1110,20,FALSE,FALSE,624,,Littleton Rd & Park Dr,,42.558619,-71.436484
SA,814970,NA,544.9666666666667,1084.9666666666667,7,90,90,90,480,1110,20,FALSE,FALSE,625,,Billerica Rd & Riverneck Rd (Pine Ridge Cemetery),,42.5986597448008,-71.338015370305
SA,814973,NA,501.45,1106.45,11,60.50000000000001,65,60.50000000000005,480,1110,20,FALSE,FALSE,628,,Varnum Ave (Riverview Village Condos),,42.6506751206351,-71.3769533438663
SA,814974,NA,426.51666666666665,1026.8333333333333,21,30.01583333333333,60,59.68333333333329,480,1110,20,FALSE,FALSE,629,,Andover St & Concord St,,42.6417103571315,-71.3014559694279
SA,814975,NA,529.05,1129.05,11,60,60,60,480,1110,20,FALSE,FALSE,631,,Andover St & Fayette St,,42.6418754996581,-71.3015962438658
SA,814978,NA,424.1,1068,32,20.770967741935483,43.89999999999998,42,480,1110,20,FALSE,FALSE,634,,Salvation Army (Appleton St & South St),,42.640352,-71.310841
SA,814979,NA,524.6333333333333,1064.6333333333334,10,60.000000000000014,60.000000000000114,60.00000000000002,480,1110,20,FALSE,FALSE,635,,Arlington St & Bridge St,,42.669205296054,-71.3025180342134
SA,814980,NA,475,1080,11,60.5,63,62.1,480,1110,20,FALSE,FALSE,636,,UMASS Lowell At Cumnock Hall (University Ave),,42.653372455213,-71.3262620378108
SA,814981,NA,568,1108,10,60,60,60,480,1110,20,FALSE,FALSE,637,,Dracut High School,,42.6748130009024,-71.3347712567514
SA,814984,NA,549,1095,20,28.736842105263158,54,54,480,1110,20,FALSE,FALSE,640,,"Ayotte's Market Hudson, NH",,42.699281,-71.419706
SA,814985,NA,539.9833333333333,1079.9833333333333,10,60,60,60,480,1110,20,FALSE,FALSE,641,,Varnum Rd & Nashua Rd,,42.6797465823608,-71.363537658624
SA,814992,NA,502.4,1042.4,10,60.000000000000014,60.000000000000114,60.00000000000002,480,1110,20,FALSE,FALSE,648,,Beacon St & 11th St,,42.6552492589549,-71.2977353987897
SA,814997,NA,499.3333333333333,1039.3333333333333,7,89.99999999999999,90.00000000000006,90.00000000000003,480,1110,20,FALSE,FALSE,653,,Billerica Rd & Riverneck Rd,,42.5987455271436,-71.3379473235224
SA,815002,NA,517.5,1057.5,10,60,60,60,480,1110,20,FALSE,FALSE,658,,Boston Rd & Casco St,,42.5985826528866,-71.2989118011781
SA,815003,NA,475.43333333333334,1015.4333333333333,10,59.99999999999999,60,60,480,1110,20,FALSE,FALSE,659,,Boston Rd & Lexington Rd,,42.548301,-71.259999
SA,815004,NA,486.9166666666667,1026.9166666666667,10,60.00000000000001,60.000000000000114,60.00000000000002,480,1110,20,FALSE,FALSE,660,,Boston Rd & Manning Rd,,42.613086,-71.306807
SA,815005,NA,483,1023,10,60,60,60,480,1110,20,FALSE,FALSE,661,,Boys & Girls Club,,42.6384507489056,-71.3200565934961
SA,815007,NA,487.65,1058.4666666666667,20,30.042982456140354,30.81666666666672,30.81666666666672,480,1110,20,FALSE,FALSE,663,,Bridge St & 3rd St,,42.6499881052582,-71.3037447976905
SA,815009,NA,524.3833333333333,1064.3833333333334,10,60.000000000000014,60.000000000000114,60.00000000000002,480,1110,20,FALSE,FALSE,665,,Bridge St & Aiken Ave,,42.6686178145295,-71.303222551405
SA,815010,NA,590.25,1130.25,10,60,60,60,480,1110,20,FALSE,FALSE,666,,Bridge St & French St,,42.646513,-71.306658
SA,815011,NA,588.2666666666667,1128.2666666666667,10,60,60,60,480,1110,20,FALSE,FALSE,667,,Bridge St & W 6th St,,42.6515658709788,-71.3032420066103
SA,815013,NA,520.8666666666667,1060.8666666666666,10,59.999999999999986,60,60,480,1110,20,FALSE,FALSE,669,,Bridge St & 13th St,,42.6577976643785,-71.3034113064096
SA,815018,NA,523.6666666666666,1063.6666666666667,10,60.000000000000014,60.000000000000114,60.00000000000002,480,1110,20,FALSE,FALSE,674,,Bridge St & Emerson Ave,,42.6660167153821,-71.3032987370354
SA,815021,NA,519.6833333333333,1059.6833333333334,10,60.000000000000014,60.000000000000114,60.00000000000002,480,1110,20,FALSE,FALSE,678,,Bridge St & 10th St,,42.653905,-71.302224
SA,815028,NA,519.2,1059.2,10,60,60,60,480,1110,20,FALSE,FALSE,685,,Bridge St & 6th St,,42.6523426548593,-71.3027212245745
SA,815029,NA,485.6333333333333,1057.4166666666667,20,30.093859649122813,31.783333333333303,31.783333333333303,480,1110,20,FALSE,FALSE,686,,Bridge St & Massmills Dr,,42.646869,-71.306122
SA,815031,NA,527.35,1067.35,10,59.999999999999986,60,60,480,1110,20,FALSE,FALSE,688,,Broadway Rd & Loon Hill Rd,,42.6722469051172,-71.2954005300526
SA,815035,NA,499.0833333333333,1039.0833333333333,10,59.99999999999999,60.00000000000006,60.000000000000014,480,1110,20,FALSE,FALSE,692,,Broadway St & Walker St,,42.6423597405406,-71.3314687676622
SA,815037,NA,519,1059,10,60,60,60,480,1110,20,FALSE,FALSE,694,,Burlington Mall at Macy's,,42.480542,-71.21259
SA,815038,NA,501.68333333333334,1101.6833333333334,11,60.00000000000001,60.000000000000114,60.000000000000014,480,1110,20,FALSE,FALSE,100,,Burnham Rd & Florence St,,42.648849603648,-71.2726807765987
SA,815040,NA,485,1028.8833333333334,17,33.99270833333334,60,60,480,1110,20,FALSE,FALSE,696,,Brick Kiln Rd & Carlisle St,,42.6042319593346,-71.3000647081569
SA,815046,NA,425.1166666666667,1068.9333333333334,42,15.702845528455287,43.81666666666666,42.58333333333326,480,1110,20,FALSE,TRUE,702,,Church St & Central Plaza,,42.6413841295253,-71.3070715566762
SA,815048,NA,473.46666666666664,1078.4666666666667,11,60.50000000000001,63.316666666666606,61.846666666666714,480,1110,20,FALSE,FALSE,704,,Merrimack St & Pawtucket St,,42.6505096876323,-71.3235326192455
SA,815050,NA,513.65,1068.55,14,42.684615384615384,75.10000000000014,75.10000000000002,480,1110,20,FALSE,FALSE,706,,Cornerstone Square,,42.5654133926188,-71.4274895423279
SA,815051,NA,531.75,1071.75,10,60,60,60,480,1110,20,FALSE,FALSE,707,,Dalton Rd & North Rd,,42.60484,-71.354131
SA,815052,NA,487.06666666666666,1087.0666666666666,11,59.99999999999999,60.00000000000006,60.00000000000001,480,1110,20,FALSE,FALSE,708,,Douglas Rd & Donald Terrace (Janas Skate Rink),,42.6345152589873,-71.2783969400723
SA,815054,NA,481,1095,63,9.903225806451612,19,19,480,1110,20,FALSE,TRUE,710,,Walmart at Drum Hill Plaza,,42.623133,-71.3611808368054
SA,815055,NA,494.8666666666667,1034.8666666666666,10,59.999999999999986,60,60,480,1110,20,FALSE,FALSE,711,,Woburn St & Commonwealth Ave (Ducharme Park),,42.615056449981,-71.2876333558926
SA,815057,NA,531.05,1136.05,21,30.25,60,58.67999999999997,480,1110,20,FALSE,FALSE,712,,Dutton St & Market St,,42.644835,-71.313731
SA,815058,NA,508.7,1136.5,31,20.926666666666666,60,35.80000000000007,480,1110,20,FALSE,FALSE,714,,Dutton St & Broadway St,,42.643875544157,-71.3145275016687
SA,815059,NA,508.1,1048.1,10,59.999999999999986,60,60,480,1110,20,FALSE,FALSE,715,,Dutton St & Market St,,42.6453073826513,-71.3133507653
SA,815060,NA,509.51666666666665,1137.3666666666666,31,20.92833333333333,60,35.85000000000002,480,1110,20,FALSE,FALSE,716,,Dutton St at Lowell Sun,,42.642044,-71.316267
SA,815061,NA,523.7833333333333,1128.7833333333333,11,60.5,65,60.5,480,1110,20,FALSE,FALSE,717,,Old Meadow Rd & University Ave,,42.6590842513631,-71.335504943692
SA,815062,NA,523.2666666666667,1128.2666666666667,11,60.5,65,60.5,480,1110,20,FALSE,FALSE,718,,E Meadow Rd & E Meadow Ln,,42.6575765941764,-71.3372507543847
SA,815063,NA,522.9,1127.9,11,60.500000000000014,65,60.5000000000001,480,1110,20,FALSE,FALSE,719,,E Meadow Rd & Shea St,,42.6572627689264,-71.3392468508451
SA,815064,NA,445.28333333333336,1045.2833333333333,11,59.99999999999999,60,60,480,1110,20,FALSE,FALSE,720,,East St (Tewsbury Hospital),,42.6118737786694,-71.2203846158787
SA,815067,NA,496.4,1036.4,10,60.000000000000014,60.000000000000114,60.00000000000002,480,1110,20,FALSE,FALSE,723,,Fletcher St & Bowers St,,42.647956,-71.324135
SA,815068,NA,503,1043,10,60,60,60,480,1110,20,FALSE,FALSE,724,,Village Square,,42.599618,-71.352779
SA,815069,NA,495,1035,10,60,60,60,480,1110,20,FALSE,FALSE,725,,Fox Hall UMass Lowell,,42.652547,-71.320319
SA,815072,NA,485,1057.0666666666666,20,30.10877192982456,32.06666666666672,32.06666666666672,480,1110,20,FALSE,FALSE,728,,French St & John St,,42.6464050713332,-71.3072382877396
SA,815073,NA,548.1666666666666,1088.1666666666667,10,60.000000000000014,60.000000000000114,60.00000000000002,480,1110,20,FALSE,FALSE,729,,Frost Rd & Norris Rd,,42.695096,-71.41541
SA,815075,NA,482.71666666666664,1022.7166666666667,10,60.00000000000001,60.00000000000006,60.000000000000014,480,1110,20,FALSE,FALSE,731,,Gorham St & South St,,42.6364837659887,-71.3088428722763
SA,815079,NA,499,1105,22,28.857142857142858,64,59,480,1110,20,FALSE,FALSE,736,,Greater Lowell Technical School,,42.65604712,-71.38403665
SA,815080,NA,531.0833333333334,1071.0833333333333,10,59.999999999999986,60,60,480,1110,20,FALSE,FALSE,737,,Greenmont Ave & Pleasant St,,42.6679392665888,-71.3085415902545
SA,815081,NA,460.3833333333333,1060.3833333333334,11,60.000000000000014,60.000000000000114,60.000000000000014,480,1110,20,FALSE,FALSE,738,,Groton & Needham St,,42.635552,-71.395403
SA,815082,NA,467.3333333333333,1077.3333333333333,31,20.333333333333332,55.59999999999991,45.60000000000002,480,1110,20,FALSE,FALSE,739,,Hale St & Cambridge St,,42.632805,-71.317681
SA,815083,NA,421.18333333333334,1126.2333333333333,124,5.732113821138212,30,14.833333333333302,480,1110,20,TRUE,TRUE,740,,Hale Street @ Kennedy Center Busway,,42.6348618958943,-71.312224817624
SA,815084,NA,495,1035,10,60,60,60,480,1110,20,FALSE,FALSE,741,,Hildreth St & Henry Ave,,42.6642310245788,-71.3128197698488
SA,815085,NA,495,1035,10,60,60,60,480,1110,20,FALSE,FALSE,742,,Hildreth St & Ludlam St,,42.660070588379,-71.3083509468511
SA,815086,NA,506.03333333333336,1106.0333333333333,11,59.99999999999999,60,60,480,1110,20,FALSE,FALSE,743,,Hovey St & Belvidere Cir,,42.6387505460985,-71.2827810336478
SA,815087,NA,507,1107,11,60,60,60,480,1110,20,FALSE,FALSE,744,,Hovey St & Douglas Rd,,42.6398828516412,-71.2780721343009
SA,815088,NA,505.73333333333335,1105.7333333333333,11,60,60,60,480,1110,20,FALSE,FALSE,745,,Hovey St & Holyrood Ave,,42.6384175712743,-71.2842672013883
SA,815089,NA,489.8666666666667,1089.8666666666666,11,59.999999999999986,60,60,480,1110,20,FALSE,FALSE,746,,Hovey St & Luce St,,42.638877,-71.282582
SA,815092,NA,501.6666666666667,1041.6666666666667,10,60.00000000000001,60.000000000000114,60.00000000000002,480,1110,20,FALSE,FALSE,749,,Humphrey St & Methuen St,,42.658058705547,-71.297141954374
SA,815096,NA,522,1062,10,60,60,60,480,1110,20,FALSE,FALSE,754,,99 Restaurant (Industrial Ave at Lowes Way),,42.616032,-71.324627
SA,815098,NA,450,1140,78,8.96103896103896,30,21.26666666666665,480,1110,20,TRUE,TRUE,756,,Merrimack St & John St,,42.6457470549782,-71.3097034139706
SA,815099,NA,473,1043,20,30,30,30,480,1110,20,FALSE,FALSE,757,,Billerica Mall,,42.555825,-71.26384
SA,815102,NA,492,1082,20,31.05263157894737,50,50,480,1110,20,FALSE,FALSE,758,,Kohls Plaza,,42.610078,-71.334572
SA,815103,NA,524,1075,20,29,49,49,480,1110,20,FALSE,FALSE,759,,Lahey Clinic,,42.4851222245844,-71.2044851423626
SA,815104,NA,537.15,1077.15,10,60.000000000000014,60.000000000000114,60.00000000000002,480,1110,20,FALSE,FALSE,761,,Lakeview Ave & Elm St,,42.680872,-71.345477
SA,815106,NA,537.8166666666667,1077.8166666666666,10,59.999999999999986,60,60,480,1110,20,FALSE,FALSE,763,,Lakeview Ave & Catherine St,,42.682932,-71.35226
SA,815107,NA,545.95,1085.95,10,60,60,60,480,1110,20,FALSE,FALSE,764,,Lakeview Ave & Christine Ave,,42.687251,-71.398881
SA,815108,NA,560,1100,10,60,60,60,480,1110,20,FALSE,FALSE,765,,Four Corners (Lakeview Ave & Coburn Rd),,42.681836,-71.394724
SA,815110,NA,547.6833333333333,1087.6833333333334,10,60.000000000000014,60.000000000000114,60.00000000000002,480,1110,20,FALSE,FALSE,760,,Frost Rd & Lakeview Ave,,42.69281,-71.412309
SA,815111,NA,535.4,1075.4,10,60.000000000000014,60.000000000000114,60.00000000000002,480,1110,20,FALSE,FALSE,768,,Lakeview Ave & Gerard St,,42.672799,-71.332017
SA,815112,NA,535.6166666666667,1075.6166666666666,10,59.999999999999986,60,60,480,1110,20,FALSE,FALSE,769,,Lakeview Ave & Hopkins St,,42.673697,-71.333099
SA,815113,NA,546.3333333333334,1086.3333333333333,10,59.999999999999986,60,60,480,1110,20,FALSE,FALSE,770,,Lakeview Ave & Lawrence Rd,,42.689307146173,-71.4010505630491
SA,815114,NA,538,1078,10,60,60,60,480,1110,20,FALSE,FALSE,771,,Lakeview Ave & Mammoth Rd,,42.683092,-71.354086
SA,815116,NA,534.2833333333333,1074.2833333333333,10,60,60,60,480,1110,20,FALSE,FALSE,773,,Lakeview Ave & Union St,,42.668995,-71.326035
SA,815117,NA,565.8666666666667,1105.8666666666666,10,59.999999999999986,60,60,480,1110,20,FALSE,FALSE,774,,Lakeview Ave at Beavor Brook Village,,42.682345,-71.348031
SA,815119,NA,570.5,1110.5,10,60,60,60,480,1110,20,FALSE,FALSE,776,,Lakeview Ave At Parker Ave,,42.6689719972877,-71.32624519719
SA,815124,NA,524.8,1064.8,10,60,60,60,480,1110,20,FALSE,FALSE,781,,School St & Liberty St,,42.6334814400833,-71.3250877932896
SA,815127,NA,524.3666666666667,1064.3666666666666,10,59.999999999999986,60,60,480,1110,20,FALSE,FALSE,784,,Liberty St & Warwick St,,42.633618,-71.329847
SA,815128,NA,504,1044,7,90,90,90,480,1110,20,FALSE,FALSE,785,,Littleton Rd & Hunt Rd,,42.587844,-71.377176
SA,815129,NA,526.6666666666666,1066.6666666666667,7,90.00000000000001,90.00000000000011,90.00000000000006,480,1110,20,FALSE,FALSE,786,,Littleton Rd & Park Dr,,42.5587259663061,-71.4360352945267
SA,815130,NA,506.53333333333336,1046.5333333333333,7,89.99999999999999,90,90,480,1110,20,FALSE,FALSE,787,,Littleton Rd & Tadmuck Rd,,42.573948,-71.406123
SA,815131,NA,518.7166666666667,1058.7166666666667,7,90,90,90,480,1110,20,FALSE,FALSE,788,,Littleton Rd & Concord Rd (Boch West),,42.5552445994533,-71.4417914330186
SA,815132,NA,536.4333333333333,1076.4333333333334,7,90.00000000000001,90.00000000000011,90.00000000000006,480,1110,20,FALSE,FALSE,789,,Littleton Rd & Princeton Wy (Princeton Apartments),,42.5771738893868,-71.3998010691986
SA,815133,NA,453.1333333333333,1053.1333333333334,11,60.000000000000014,60.000000000000114,60.000000000000014,480,1110,20,FALSE,FALSE,790,,Livingston St & Eagle Dr,,42.5929883753099,-71.2064572649228
SA,815134,NA,450.2,1050.2,11,60.00000000000001,60.00000000000006,60.00000000000001,480,1110,20,FALSE,FALSE,791,,Livingston St & Delaney Dr,,42.603857,-71.21063
SA,815135,NA,476.78333333333336,1076.7833333333333,11,59.99999999999999,60,60,480,1110,20,FALSE,FALSE,792,,Livingston St & Pondview Ln,,42.601094282691,-71.2092422912478
SA,815136,NA,450.7,1050.7,11,60.00000000000001,60.00000000000006,60.00000000000001,480,1110,20,FALSE,FALSE,793,,Livingston St & Saunders Circle,,42.6019932134479,-71.2097420221833
SA,815137,NA,484,1124,22,30.476190476190474,35,35,480,1110,20,FALSE,FALSE,794,,Lowell General Hospital,,42.647772,-71.34085
SA,815138,NA,472,1128,22,31.238095238095237,56,56,480,1110,20,TRUE,FALSE,795,,Saints Memorial Hospital,,42.645561,-71.300323
SA,815139,NA,444,1134,44,16.046511627906977,30,19.75,480,1110,20,TRUE,TRUE,796,,Lowell High School,,42.648026,-71.31138
SA,815142,NA,468.85,1068.85,11,59.999999999999986,60,60,480,1110,20,FALSE,FALSE,799,,Main St & Glen Rd,,42.5663994256658,-71.1850119159119
SA,815143,NA,469.78333333333336,1069.7833333333333,11,59.99999999999999,60,60,480,1110,20,FALSE,FALSE,800,,Main St & Winter St,,42.57097,-71.188546
SA,815144,NA,461.93333333333334,1061.9333333333334,11,60.00000000000001,60.000000000000114,60.000000000000014,480,1110,20,FALSE,FALSE,801,,Main St & Wisser St,,42.559258,-71.182369
SA,815145,NA,459.98333333333335,1059.9833333333333,11,60,60,60,480,1110,20,FALSE,FALSE,802,,Main St & Lake St,,42.567661,-71.186094
SA,815146,NA,466.51666666666665,1066.5166666666667,11,60,60,60,480,1110,20,FALSE,FALSE,803,,Main St & Wilmington Plaza,,42.5541254574621,-71.1795775722164
SA,815147,NA,454,1054,11,60,60,60,480,1110,20,FALSE,FALSE,804,,Market Basket Plaza,,42.5904242558359,-71.2044600463857
SA,815148,NA,456.56666666666666,1056.5666666666666,11,59.99999999999999,60.00000000000006,60.00000000000001,480,1110,20,FALSE,FALSE,805,,Main St & Nichols St,,42.5812244692586,-71.1950534469231
SA,815149,NA,438.76666666666665,1038.7666666666667,11,60,60,60,480,1110,20,FALSE,FALSE,806,,Main St & Dollar Valley Plaza,,42.619094,-71.252872
SA,815150,NA,479.6333333333333,1084.6333333333334,11,60.500000000000014,62.766666666666765,62.28666666666669,480,1110,20,FALSE,FALSE,807,,Mammoth Rd & Tolman Ave,,42.6549298763423,-71.3392212381705
SA,815151,NA,499,1123,30,21.517241379310345,60,36,480,1110,20,FALSE,FALSE,808,,Market Basket at Sunrise Plaza,,42.664258,-71.302488
SA,815152,NA,455,1145,34,20.90909090909091,30,30,480,1110,20,TRUE,FALSE,809,,Leo Roy Parking Garage (Market St),,42.644393941692,-71.3104705751984
SA,815153,NA,484,1114,40,16.153846153846153,58,30,480,1110,20,FALSE,TRUE,810,,Meadow Brook Plaza (Plain St),,42.622811,-71.317877
SA,815157,NA,451.95,1141.95,24,30.000000000000004,30.000000000000057,30,480,1110,20,TRUE,FALSE,814,,Merrimack St & Shattuck St,,42.645661,-71.312107
SA,815158,NA,530.4333333333333,1135.4333333333334,11,60.500000000000014,65,60.5000000000001,480,1110,20,FALSE,FALSE,815,,Merrimack St & Dutton St,,42.645913,-71.313333
SA,815159,NA,470,1075,11,60.5,64,61.3,480,1110,20,FALSE,FALSE,816,,Lowell City Hall (Merrimack St),,42.6461536351958,-71.314311812217
SA,815160,NA,545,1085,10,60,60,60,480,1110,20,FALSE,FALSE,817,,Middlesex Turnpike Ext & A St,,42.497766,-71.227287
SA,815162,NA,503.21666666666664,1043.2166666666667,10,60.00000000000001,60.00000000000006,60.000000000000014,480,1110,20,FALSE,FALSE,819,,Middlesex Tpk & Marshall St,,42.5349210186533,-71.2653436994177
SA,815163,NA,504.68333333333334,1044.6833333333334,10,60.00000000000001,60.000000000000114,60.00000000000002,480,1110,20,FALSE,FALSE,820,,Middlesex Tpk & Plank St,,42.514696,-71.24136
SA,815164,NA,490.8833333333333,1030.8833333333334,10,60.000000000000014,60.000000000000114,60.00000000000002,480,1110,20,FALSE,FALSE,821,,Middlesex St & Pratt Ave,,42.6358550817128,-71.3513799950499
SA,815165,NA,513,1053,10,60,60,60,480,1110,20,FALSE,FALSE,822,,Middlesex Tpk & Terrace Hall Ave,,42.4947307588733,-71.2259043975129
SA,815167,NA,490,1090,11,60,60,60,480,1110,20,FALSE,FALSE,824,,Middlesex St Middlesex Plaza,,42.6346990909385,-71.3561102499226
SA,815168,NA,553.2166666666667,1093.2166666666667,10,60,60,60,480,1110,20,FALSE,FALSE,825,,Middlesex Tpk & Lexington Rd,,42.527931,-71.25686
SA,815172,NA,510.1666666666667,1050.1666666666667,7,90.00000000000001,90.00000000000011,90.00000000000006,480,1110,20,FALSE,FALSE,829,,Nixon Rd & Littleton Rd,,42.5702327130409,-71.4185243398917
SA,815173,NA,532.7666666666667,1072.7666666666667,10,60,60,60,480,1110,20,FALSE,FALSE,830,,Fletcher St & North Rd,,42.5995358682207,-71.3526472297664
SA,815175,NA,462,1053,20,31.105263157894736,51,51,480,1110,20,FALSE,FALSE,832,,North Billerica Train Station,,42.5925614398018,-71.2820263616562
SA,815176,NA,499,1045,20,28.736842105263158,54,54,480,1110,20,FALSE,FALSE,103,,North Billerica Train Station,,42.593418170979,-71.2797624072156
SA,815177,NA,447.21666666666664,1080,22,30.132539682539683,32.78333333333336,32.7833333333333,480,1110,20,FALSE,FALSE,833,,On Property Southgate Rd,,42.6076032716878,-71.2171122478504
SA,815178,NA,515,1055,7,90,90,90,480,1110,20,FALSE,FALSE,834,,Westford Regency Hotel (Littleton Rd),,42.5631965116273,-71.4293888888159
