stop_id,passing_values,frequent_stop,stop_code,platform_code,stop_name,stop_desc,stop_lat,stop_lon
2448720,2,FALSE,802612,,Anna Jacques Hospital,,42.81382739419,-70.8913251900117
2448721,1,FALSE,798448,,Greater Lawrence Technical School,,42.689975,-71.196282
2448723,1,FALSE,798434,,S Broadway & Mt Vernon Street,,42.685800693313,-71.156386023314
2448725,1,FALSE,802590,,Prospect Street & E Haverhill Street,,42.7175106573955,-71.1547008245716
2448726,0,FALSE,798520,,Washington Street & Lowell Ave,,42.7738649277952,-71.1071193386231
2448727,0,FALSE,798437,,Chestnut Court,,42.655772237406,-71.132193693642
2448729,1,FALSE,798499,,S Union Street & Market Street,,42.7009666347536,-71.1535488392868
2448730,0,FALSE,802565,,Hilldale Avenue & Monument Street,,42.790679819384,-71.104128350857
2448732,1,FALSE,798440,,Courtyard Marriott,,42.6946399021029,-71.1987000588608
2448734,1,FALSE,802591,,Water Street & Ames Street,,42.694824260271,-71.17978
2448735,2,FALSE,802578,,N Main Street & Balmoral,,42.6712330021962,-71.1500254244328
2448736,3,FALSE,798492,,Port Plaza,,42.8196118417146,-70.9068587011105
2448737,2,FALSE,798454,,Holy Family Hospital,,42.728050295523,-71.1678539211678
2448738,0,FALSE,798498,,Rivers Edge Plaza - Building 19,,42.7633682234569,-71.0378405740662
2448741,1,FALSE,798488,,Andover Street & Winthrop Street,,42.6948339080297,-71.1573325423279
2448747,1,FALSE,798456,,Jackson Street & Swan Street,,42.722079799785,-71.158304444111
2448748,0,FALSE,798528,,Hilldale Avenue & Monument Street,,42.790810649166,-71.104155172947
2448750,0,FALSE,802574,,Shawsheen Plaza,,42.664984011439,-71.143861282198
2448751,2,FALSE,798516,,Methuen Plaza - Walmart,,42.742783,-71.165003
2448754,1,FALSE,798479,,Newburyport MBTA Station,,42.7975947234554,-70.8783005138779
2448755,2,FALSE,798530,,Summer Street & Union Street,,42.710662,-71.153244
2448756,2,FALSE,798491,,Merrimack Street & Pleasant Valley Street,,42.7463025591459,-71.1294355373649
2448758,1,FALSE,798469,,Merri Village,,42.8291494607539,-71.0009929067459
2448761,2,FALSE,798423,,Marston Street & Allston Street,,42.7136296638473,-71.1395338601188
2448763,0,FALSE,812013,,Hadley West Apartments,,42.773909805074,-71.11044243226
2448764,1,FALSE,798467,,McGovern Transportation Center,,42.702391942237,-71.152963753303
2448766,1,FALSE,798511,,Stateline Plaza - TJ Maxx,,42.815878704363,-71.104508558197
2448767,3,FALSE,802558,,Buckley Transportation Center,For Rt 33 use only,42.708118677525,-71.163623895935
2448769,1,FALSE,802598,,Plaza 114,,42.6902243104923,-71.1497418282071
2448770,2,FALSE,798495,,Marriott Springhill Suites,,42.696735541909,-71.213116034401
2448771,0,FALSE,798442,,Doctors Park,,42.67614585952,-71.135992618385
2448772,2,FALSE,802592,,White Street & Maple St,,42.7125490051884,-71.1660234957009
2448773,0,FALSE,802575,,Frye Circle,,42.666725006683,-71.149159317791
2448774,0,FALSE,802571,,Senior Center,,42.6550236814053,-71.1355503321532
2448775,1,FALSE,798501,,Salisbury Center,,42.8415444746546,-70.8590696487961
2448778,1,FALSE,802560,,Merrimack Street & Pleasant Valley Street,,42.7462736891824,-71.1296527962951
2448780,2,FALSE,798439,,Nicholas J. Costello Transportation Center,,42.8579267446633,-70.9276963802872
2448782,2,FALSE,798497,,River Street & Lowell Ave,,42.772367856058104,-71.1161092159385
2448783,2,FALSE,798460,,Lawrence General Hospital - Main Entrance,,42.7095070053548,-71.14953551157
2448784,1,FALSE,2435109,,Buckley Transportation Center,,42.708021984421,-71.162951744945
2448785,3,FALSE,798472,,Merrimack Plaza - Rite-Aid Pharmacy,,42.7051274246144,-71.1995604432803
2448786,1,FALSE,798465,,Main Street & Sutton Street,,42.7058793991814,-71.1332582098217
2448787,1,FALSE,798461,,Main Street & Central Street,,42.656508040948,-71.141044144517
2448788,0,FALSE,818775,,James Steam Mill,,42.808683357367,-70.862312188444
2448789,0,FALSE,798441,,Currier Square,,42.770881288928,-71.093428434852
2448792,2,FALSE,802593,,Elm Towers,,42.7111999473558,-71.1671466588955
2448793,0,FALSE,798426,,Andover Commons,,42.65975,-71.144327
2448796,0,FALSE,798519,,Ward Hill Industrial Park East,,42.75948,-71.11517
2448799,2,FALSE,798525,,Woodridge Housing,,42.6832481444841,-71.1318220932541
2448801,1,FALSE,798438,,Chickering Road & Peters Street,,42.67688647891,-71.12514904051
2448802,0,FALSE,2394656,,United Linen & La Fruter√≠a Market,,42.71255960347,-71.178463346198
2448804,2,FALSE,798515,,Target Plaza,,42.7407141676447,-71.1607185038405
2448807,1,FALSE,802566,,Currier Square,,42.770812754694,-71.09321654034
2448808,0,FALSE,798536,,Broadway & Essex Street,,42.70487,-71.168339
2448809,1,FALSE,802561,,River Street & Lowell Ave,,42.7722704006252,-71.1156746980781
2448810,2,FALSE,802577,,S Broadway & Mt Vernon Street,,42.686180905448,-71.156463807375
2448812,1,FALSE,798444,,Elm Towers,,42.7113729798067,-71.166763537269
2448813,1,FALSE,798507,,Shawsheen Square,,42.672096185905,-71.1510607571125
2448815,0,FALSE,802606,,Methuen Square,,42.7282059126985,-71.1880641068153
2448819,0,FALSE,802568,,Washington Street & Lowell Ave,,42.7738163411976,-71.1072507668648
2448823,1,FALSE,2326840,,Father Norton Manor,,42.6437066352457,-71.301474046627
2448825,0,FALSE,798480,,North Avenue & Gas Company Road,,42.807939219816,-71.086551542328
2448827,1,FALSE,798424,,Andover Street & Beacon Street,,42.690479309243,-71.1732627991208
2448828,1,FALSE,798478,,Mystic Street,,42.7252678655598,-71.2016181423626
2448829,0,FALSE,798526,,YMCA,,42.673146,-71.131923
2448830,1,FALSE,798474,,Methuen Square,,42.7276953380692,-71.1873385692768
2448833,2,FALSE,798466,,Market Basket Plaza,,42.8211876248,-70.9021401437292
2448835,1,FALSE,802576,,Doctors Park,,42.675935846311,-71.135759335579
2448839,1,FALSE,2326839,,Church Street - Central Plaza,,42.6413831139008,-71.3070731736627
2448840,1,FALSE,818749,,Andover Street & Newton Street,,42.691683676185,-71.167454792575
2448842,0,FALSE,798475,,Monument Square,,42.7806544201047,-71.0772603730164
2448843,0,FALSE,798534,,Lawrence Street & Park Street,,42.7163407567604,-71.1654389828034
2448845,4,TRUE,798521,,Washington Square Transit Center,,42.7734627585851,-71.0823115901088
2448846,0,FALSE,798496,,Rita Hall,,42.7188241451746,-71.1717454981823
2448849,2,FALSE,798464,,Main Street & School Street,,42.649256781425,-71.1359653845611
2448855,1,FALSE,798485,,NECC Haverhill Campus,,42.796228188888,-71.049514144856
2448858,1,FALSE,798443,,E Haverhill & Prospect,,42.7171344242467,-71.1546981423626
2448859,2,FALSE,798517,,The Loop,,42.744143381334,-71.159469380538
2448860,1,FALSE,802594,,Rita Hall,,42.7186360328673,-71.171593953373
2448861,1,FALSE,798431,,Berkeley Home,,42.7210753834001,-71.163426728836
2448862,4,TRUE,798510,,State Street,,42.8085874533007,-70.8710790429916
2448863,2,FALSE,802559,,Jackson Street & Swan Street,,42.722667790392,-71.158500245369
2448865,0,FALSE,798447,,Frye Circle,,42.666853308994,-71.14918882209
2448866,2,FALSE,798457,,Robert B. Kennedy Transfer Center,,42.635974050051,-71.313978406335
2448867,1,FALSE,802562,,Monument Square,,42.7810469721904,-71.0773488859139
2448870,0,FALSE,798537,,Union Street & Essex Street,,42.707678,-71.153522
2448872,1,FALSE,798458,,Kennedy Circle,,42.7660730974683,-71.0469530039825
2448873,0,FALSE,2428718,,Shawsheen Square,,42.671927572364,-71.150817831834
2448874,1,FALSE,798524,,White Street & Maple St,,42.7127106583202,-71.1661763816147
2448875,4,TRUE,798483,,North Andover Mall - Market Basket,,42.683975,-71.136028
2448876,0,FALSE,802587,,Chickering Road & Peters Street,,42.676641070399,-71.125359593918
2448877,1,FALSE,2326838,,150 Appleton Street - Salvation Army,,42.6403432333564,-71.3107975098564
2448880,1,FALSE,798533,,Merrimack Avenue & Draycott Avenue - Lenzis Bakery,,42.659886101348,-71.254889898148
2448881,1,FALSE,798529,,Heritage Green Condominiums,,42.686210813822,-71.122089014446
2448882,1,FALSE,802588,,McGovern Transportation Center,,42.702478777489,-71.15305494841
2448884,0,FALSE,820025,,Heritage Green Condominiums,,42.686204219074,-71.12191794203
2448885,1,FALSE,798473,,Merrimack Valley Hospital - Main Entrance,,42.7654326022309,-71.0457208982455
2448886,1,FALSE,798518,,Village Plaza - Dollar Tree,,42.736340190201,-71.195587099544
2448888,1,FALSE,2383139,,Riverwalk,,42.703361,-71.143479
2448889,0,FALSE,798459,,Lawrence Street & Birchwood St,,42.721384261235,-71.1720434060821
2448890,1,FALSE,798427,,Andover Square,,42.6554436153821,-71.1397155975533
2448891,0,FALSE,802572,,Main Street & Central Street,,42.6564734992444,-71.1409401104507
2448896,1,FALSE,798477,,Mt Vernon Street & North Street,,42.6760291430278,-71.1854837263546
2448901,0,FALSE,798445,,Andover MBTA Station,,42.6573798415442,-71.1450278834324
2448906,1,FALSE,2326841,,Saints Memorial Hospital,,42.6442636069754,-71.3004750604951
2448907,1,FALSE,798468,,Melrose Street & Water Street,,42.699594,-71.171668
2448908,1,FALSE,802589,,Main Street & Sutton Street,,42.7060969440321,-71.133129463789
2448910,0,FALSE,798430,,BJs,,42.756486595306,-71.118479459207
2448911,0,FALSE,802573,,Andover Commons,,42.65984280025,-71.14443697057
2448912,1,FALSE,798532,,Water Street & Ames Street,,42.694911,-71.17978
2448914,2,FALSE,798500,,Salisbury Beach,,42.842334785712,-70.819922996657
2448916,3,FALSE,798452,,Heritage House,,42.808119664771,-70.88103163136
2448917,0,FALSE,802570,,Kennedy Circle,,42.7661371460351,-71.0470012837447
2448918,1,FALSE,798450,,"Haverhill Commons, Target",,42.788369630944,-71.115387716179
2448919,4,TRUE,798435,,Buckley Transportation Center,,42.708028268605,-71.163276241491
2448920,1,FALSE,802617,,Merrimac Square,,42.834004528893,-71.0021423336601
2448923,2,FALSE,798425,,Andover Street & Newton Street,,42.691730991172,-71.167186571674
2448924,2,FALSE,802595,,Andover Street & Winthrop Street,,42.694886878525,-71.15709516683
2448925,2,FALSE,802597,,S Union Street & Market Street,,42.7009917235686,-71.1533382858792
2448926,2,FALSE,802601,,Oakland Ave & Railroad Street,,42.7215227775818,-71.1869799296455
2448928,1,FALSE,798489,,Plaza 114,,42.6907456884136,-71.1499483583012
2448930,4,TRUE,798504,,Senior Center,,42.710745768988,-71.159120040083
2454407,1,FALSE,,,Elm Street & Ring St,,42.857803976512,-70.928912828972
2454409,1,FALSE,,,Al Prime Gas,,42.858610112946,-70.928236268334
2454410,1,FALSE,,,49 Friend Street - Carriagetown Wine & Spirits,,42.856781263011,-70.932897952347
2454428,1,FALSE,,,Merrimack Plaza - Market Basket,,42.705153159126,-71.201261406445
2454437,1,FALSE,,,103 Broadway,,42.705922479847,-71.168873613672
2454448,0,FALSE,,,Village Plaza -  Jo-Anns Fabrics,,42.736726540051,-71.196858494474
2454449,3,FALSE,,,160 Winthrop Avenue,,42.688058026129,-71.14602856396
2454453,2,FALSE,,,Union Street & Merrimack Street - New Balance,,42.70316771843,-71.153311972996
2454454,2,FALSE,,,Union Street & Island Street,,42.706019231356,-71.153338908829
2454455,2,FALSE,,,Union Street & Methuen Street,,42.707082974235,-71.153318613556
2454460,1,FALSE,,,Union Street & Island Street,,42.70621903879,-71.153491273457007
2454461,1,FALSE,,,Union Street & Merrimack Street - New Balance,,42.703161371596,-71.153510580746
2454462,2,FALSE,,,160 Winthrop Avenue,,42.687939855992,-71.146202831524
2454463,3,FALSE,,,North Andover Mall - AT&T,,42.682651400929,-71.135279971059
2454468,1,FALSE,,,Heritage Place,,42.68984532728,-71.153273314307
2454477,2,FALSE,,,Heritage Place,,42.690562587554,-71.153137390835
2454539,2,FALSE,,,Middlesex Street & Moulton Avenue,,42.641853039001,-71.30900236473
2454566,3,FALSE,,,MVRTA Lot,,42.707947207542,-71.151538951901
2454603,0,FALSE,,,Westgate - Burlington Coat Factory,,42.772825897417,-71.114480221742
2454607,0,FALSE,,,Monument Street & Broadway,,42.782938351296,-71.113051974574
2454647,0,FALSE,,,Low Street & Wallace Bradshaw Jr Way,,42.811574374613,-70.893965179332
2454667,0,FALSE,,,Low Street - Watts Eye,,42.807450100081,-70.884173259817
2559164,2,FALSE,,,MVRTA Parking Garage - Newburyport,,42.8121248525463,-70.8737557979324
2579602,0,FALSE,,,Plaistow Walmart,,42.8254511466117,-71.1105457791262
2579603,1,FALSE,,,Plaistow Market Basket,,42.8226931437567,-71.106205638618
2582998,0,FALSE,,,Methuen Square,,42.7277531425569,-71.1876071912278
2586175,1,FALSE,,,39 Hampshire Street,,42.7279539,-71.18893701
2586285,0,FALSE,,,Carriagetown Marketplace - Stop & Shop,,42.8473105968911,-70.9110809236974
2586342,0,FALSE,,,Essex Street & Franklin Street - Correction Center,,42.70564733,-71.16611596
2594062,0,FALSE,,,Low Street - Army National Guard,,42.80807382,-70.88748072
2594072,0,FALSE,,,Port Plaza - Kmart,,42.81949496,-70.90521457
2594078,1,FALSE,,,Melrose Street & Water Street,,42.69979322,-71.17203031
2594186,0,FALSE,,,School Street & Central Street,,42.65440355,-71.14326851
2594190,0,FALSE,,,Port Plaza - Shaws,,42.82035996,-70.90463113
2594274,1,FALSE,798523,,Westgate - Market Basket,,42.77454452,-71.11392809
2594327,1,FALSE,,,Merrimack Avenue & Intervale Avenue - Lenzis Bakery,,42.65972504,-71.25483365
2613752,0,FALSE,,,Winter Street & Lafayette Square,,42.77748118933,-71.0886431883416
2616256,0,FALSE,,,Pond Street - CVS,,42.8072823340405,-70.8735134593343
2616257,0,FALSE,,,High Street & Green Street,,42.808386669575,-70.8737381791806
2628774,1,FALSE,,,Branch Street - Dana-Farber Cancer Institute,,42.7071224474213,-71.2149191503561
2628782,0,FALSE,,,Salisbury Senior Center,,42.8461868203562,-70.8639928415728
2729452,0,FALSE,,,Cedardale,,42.7522054512185,-71.1032905914297
2729483,1,FALSE,,,200 Minuteman Road,,42.6941573099787,-71.2131024701998
3475107,2,FALSE,,,Mt Vernon Street & North Street,,42.6759047872572,-71.1853595054051
3475112,2,FALSE,,,Andover Street & Beacon Street,,42.6903455998816,-71.173198154968
3672636,1,FALSE,,,Main St & Route 110,,42.847774001654,-70.9300465403361
3673333,1,FALSE,,,Route 110 & Main St,,42.8475533342269,-70.9304833846249
3880688,0,FALSE,,,Groveland Housing,,42.7692959640431,-71.0252026651384
