DOW,stop_id,direction_id,firstArrival_mam,lastArrival_mam,trips,averageHeadway,longestHeadway,Percentile90_hw,span_min,span_max,freq_min,span_pass,freq_pass,stop_code,platform_code,stop_name,stop_desc,stop_lat,stop_lon
SA,2597088,NA,467.9307690371122,977.9307690371122,5,127.5,150,141.050317691789,480,1110,20,FALSE,FALSE,,,Bridge St & Livingstone Ave,,42.5502052020573,-70.8938051641689
SA,2597091,NA,528.6069613728149,1020,5,122.84825965679627,133,129.1,480,1110,20,FALSE,FALSE,,,Montserrat Station,,42.5618946873959,-70.8689542157384
SA,3460636,NA,498.1756652975745,998.1756652975745,5,125,140,134.04046035900132,480,1110,20,FALSE,FALSE,,,NorthShore Education Consortium,,42.569392304805604,-70.8788595457585
SA,3460638,NA,500,1000,5,125,140,134.06370375214325,480,1110,20,FALSE,FALSE,,,Whole Foods Shopping,,42.5730988511098,-70.879196262258
SA,3460639,NA,500.4457369113923,1000.178294764557,5,124.93313946329117,139.73255785316462,133.83862320523383,480,1110,20,FALSE,FALSE,,,133 Brimbal Ave Dialysis,,42.5742590980758,-70.8772725402071
SA,3460640,NA,501.237764083421,1000.4951056333684,5,124.81433538748686,139.25734154994745,133.52159920195686,480,1110,20,FALSE,FALSE,,,128 Cycles,,42.5715297494344,-70.8752885791225
SA,3460642,NA,513.7770789078226,873.7770789078227,4,120.00000000000004,120.00000000000011,120.00000000000009,480,1110,20,FALSE,FALSE,,,Henry's Food Mart,,42.571743870978,-70.8935987186822
SA,3460643,NA,560,945,4,128.33333333333334,145,140,480,1110,20,FALSE,FALSE,,,Trask Ln & Folly Hill,,42.5685642413802,-70.907498442901
SA,3460645,NA,466.1394862195981,976.1394862195981,4,170,240,221.99999999999997,480,1110,20,FALSE,FALSE,,,Giles Ave,,42.5530575381212,-70.9035006327614
SA,3460647,NA,532.1578541173443,1027,5,123.71053647066393,135,130.5,480,1110,20,FALSE,FALSE,,,Beverly Library,,42.551213500289,-70.8764826769488
SA,3460648,NA,570,960,4,130,145,141,480,1110,20,FALSE,FALSE,,,Market Basket,,42.5509328333064,-70.9327668707202
SA,3460649,NA,507.464825006677,507.464825006677,1,NA,-Inf,NA,480,1110,20,FALSE,NA,,,Cabot Plaza,,42.5589889665313,-70.8822133230542
SA,3461010,NA,517.0593218451181,517.0593218451181,1,NA,-Inf,NA,480,1110,20,FALSE,NA,,,Bass River Tennis Club,,42.5724691050963,-70.8839648829374
SA,3461011,NA,518.016357725497,518.016357725497,1,NA,-Inf,NA,480,1110,20,FALSE,NA,,,Futures Behavioral Therapy,,42.5682500142646,-70.8811129149947
SA,798299,NA,492,972,12,43.63636363636363,77,60,480,1110,20,FALSE,FALSE,,,Addison Gilbert Hospital,,42.6259314,-70.6799482
SA,798300,NA,486,966,5,120,120,120,480,1110,20,FALSE,FALSE,,,Annisquam Village Church,,42.66154202,-70.67109183
SA,798305,NA,640,1000,4,120,120,120,480,1110,20,FALSE,FALSE,,,Atlantic St & Moorland Rds,,42.6102123,-70.6339853
SA,798312,NA,564,924,7,60,60,60,480,1110,20,FALSE,FALSE,,,Blackburn Industrial Park,,42.627331,-70.654977
SA,798314,NA,535,1014,5,119.75,120,120,480,1110,20,FALSE,FALSE,,,Cape Hedge Inn,,42.641125,-70.600708
SA,798323,NA,588,948,7,60,60,60,480,1110,20,FALSE,FALSE,,,Curtis - Clark Building,,42.6158244,-70.6599199
SA,798325,NA,471,1021,18,32.35294117647059,70,55,480,1110,20,FALSE,FALSE,,,Dock Square,,42.65857813,-70.61738533
SA,798326,NA,500,1045,59,9.39655172413793,30,27,480,1110,20,FALSE,TRUE,,,Dunkin' Donuts,,42.6136316,-70.6592043
SA,798331,NA,551,1031,5,120,120,120,480,1110,20,FALSE,FALSE,,,East Main St & Rocky Neck Ave,,42.6034725,-70.6545933
SA,798338,NA,590,1010,4,140,180,168,480,1110,20,FALSE,FALSE,,,Essex Ave & Magnolia Ave,,42.61071203,-70.70788133
SA,798339,NA,580,1000,4,140,180,168,480,1110,20,FALSE,FALSE,,,Essex Ave & Concord St,,42.61766504,-70.71135832
SA,798340,NA,587,1007,4,140,180,168,480,1110,20,FALSE,FALSE,,,Essex Ave & Lawrence Mountain Rd,,42.6230225,-70.7294938
SA,798341,NA,593,1013,4,140,180,168,480,1110,20,FALSE,FALSE,,,Essex Ave & Edgewood Rd,,42.6138101,-70.6890008
SA,798342,NA,581,1001,4,140,180,168,480,1110,20,FALSE,FALSE,,,Essex Ave & Fernald St,,42.6220192,-70.7262721
SA,798343,NA,585,1005,4,140,180,168,480,1110,20,FALSE,FALSE,,,Essex Ave & Forest Ln,,42.6238669,-70.7366911
SA,798344,NA,588,1008,4,140,180,168,480,1110,20,FALSE,FALSE,,,Essex Ave & New Way Ln,,42.6174769,-70.7146807
SA,798345,NA,584,1004,4,140,180,168,480,1110,20,FALSE,FALSE,,,Essex Ave & Woodman St,,42.6261137,-70.7456615
SA,798346,NA,582,1002,4,140,180,168,480,1110,20,FALSE,FALSE,,,Essex Ave & Sumner St,,42.6237685,-70.7360583
SA,798347,NA,583,1003,8,60,180,144,480,1110,20,FALSE,FALSE,,,Essex Town Line,,42.628692,-70.7503357
SA,798351,NA,556,916,7,60,60,60,480,1110,20,FALSE,FALSE,,,Gloucester Crossing,,42.62366,-70.661748
SA,798352,NA,547,907,7,60,60,60,480,1110,20,FALSE,FALSE,,,Gloucester High School,,42.613532,-70.6751916
SA,798353,NA,495,1050,17,34.6875,75,62,480,1110,20,FALSE,FALSE,,,Commuter Rail Station - Gloucester,,42.61657151,-70.66754752
SA,798354,NA,645,1005,4,120,120,120,480,1110,20,FALSE,FALSE,,,Good Harbor Beach,,42.6225644,-70.63198094
SA,798355,NA,550,970,4,140,180,168,480,1110,20,FALSE,FALSE,,,Hammond Castle,,42.5856884,-70.6931195
SA,798356,NA,576,996,4,140,180,168,480,1110,20,FALSE,FALSE,,,Heights at Cape Ann,,42.6139683,-70.6886748
SA,798358,NA,483,963,5,120,120,120,480,1110,20,FALSE,FALSE,,,Lanesville Post Office,,42.67765898,-70.65877859
SA,798362,NA,554.2661287757879,974,4,139.9112904080707,180,168,480,1110,20,FALSE,FALSE,,,Lexington Ave & Flume Rd,,42.5760471005007,-70.7123213362457
SA,798364,NA,546,906,7,60,60,60,480,1110,20,FALSE,FALSE,,,Lincoln Park,,42.6155158,-70.6739164
SA,798368,NA,553,975,12,38.36363636363637,178,118,480,1110,20,FALSE,FALSE,,,Magnolia Square,,42.5772319,-70.7146661
SA,798369,NA,510.60954681467456,1046,32,17.270659780171787,55,30.39045318532544,480,1110,20,FALSE,TRUE,,,Main St & Pleasant St,,42.612909,-70.6615456
SA,798372,NA,577,937,7,60,60,60,480,1110,20,FALSE,FALSE,,,Sheedy Park,,42.6164762668077,-70.6630988081787
SA,798374,NA,583,943,7,60,60,60,480,1110,20,FALSE,FALSE,,,McPherson Park,,42.614762904496,-70.6664177209412
SA,798375,NA,567,927,7,60,60,60,480,1110,20,FALSE,FALSE,,,Millpond Medical Building,,42.6282009,-70.6779186
SA,798376,NA,637,997,4,120,120,120,480,1110,20,FALSE,FALSE,,,Niles Beach,,42.5969526,-70.6537327
SA,798380,NA,477,957,5,120,120,120,480,1110,20,FALSE,FALSE,,,Pigeon Cove Post Office,,42.676514,-70.624529
SA,798381,NA,571,931,7,60,60,60,480,1110,20,FALSE,FALSE,,,Poplar Park,,42.6245296,-70.6697089
SA,798382,NA,584,944,7,60,60,60,480,1110,20,FALSE,FALSE,,,Post Office - City Hall,,42.6140742,-70.6632582
SA,798386,NA,561,981,4,140,180,168,480,1110,20,FALSE,FALSE,,,Ravenswood Park,,42.5944782,-70.6890026
SA,798387,NA,470,1074,35,17.764705882352942,57,47,480,1110,20,FALSE,TRUE,,,Rockport Market,,42.65695599,-70.61834408
SA,798388,NA,474,1071,10,66.33333333333333,117,117,480,1110,20,FALSE,FALSE,,,Train Station - Rockport,,42.6562961,-70.6260404
SA,798390,NA,590,950,7,60,60,60,480,1110,20,FALSE,FALSE,,,Senior Center - Dunkin' Donuts,,42.613531,-70.659259
SA,798395,NA,547,983,8,62.285714285714285,164,128,480,1110,20,FALSE,FALSE,,,Western Ave & Stage Fort Park,,42.6084293,-70.6781411
SA,798400,NA,471,1021.2070992178002,14,42.323623016753864,70.20709921780019,60,480,1110,20,FALSE,FALSE,,,Toad Hall Bookstore,,42.6583104,-70.6193554
SA,798414,NA,578,1011,8,61.857142857142854,167,131,480,1110,20,FALSE,FALSE,,,Train Station - West Gloucester,,42.61159669,-70.70503616
SA,798415,NA,573.0879703539171,993.0879703539171,4,140,180,168,480,1110,20,FALSE,FALSE,,,Western Ave & Centennial Ave,,42.6101892,-70.6725996
SA,798417,NA,559,979,4,140,180,168,480,1110,20,FALSE,FALSE,,,Western Ave & Magnolia Ave,,42.5852725,-70.7167935
SA,801985,NA,651,1011,4,120,120,120,480,1110,20,FALSE,FALSE,,,Cape Hedge Inn,,42.64096276,-70.60067876
SA,801986,NA,518,1030,26,20.48,33,32,480,1110,20,FALSE,FALSE,,,Stop & Shop - CVS,,42.61859043,-70.6424938
SA,801990,NA,520,1027,17,31.6875,60,33,480,1110,20,FALSE,FALSE,,,Shaw's Supermarket,,42.62291714,-70.64021734
SA,802509,NA,573,1053,5,120,120,120,480,1110,20,FALSE,FALSE,,,Addison Gilbert Hospital,,42.62598563,-70.67980067
SA,802510,NA,579,1059,5,120,120,120,480,1110,20,FALSE,FALSE,,,Annisquam Village Church,,42.6615894,-70.6709644
SA,802517,NA,582,1062,5,120,120,120,480,1110,20,FALSE,FALSE,,,Lanesville Post Office,,42.677583,-70.658737
SA,802518,NA,588,1068,5,120,120,120,480,1110,20,FALSE,FALSE,,,Pigeon Cove Post Office,,42.6765189,-70.6243815
SA,807762,NA,635,995,4,120,120,120,480,1110,20,FALSE,FALSE,,,East Main St & Rocky Neck Ave,,42.6035311,-70.6546882
SA,807764,NA,546,1026,5,120,120,120,480,1110,20,FALSE,FALSE,,,Atlantic St & Moorland Rds,,42.6102086,-70.6341039
SA,807765,NA,549,1029,5,120,120,120,480,1110,20,FALSE,FALSE,,,Niles Beach,,42.59705622,-70.65368713
SA,807773,NA,544.3288717431635,1025,5,120.16778206420912,120.67112825683648,120.46978977978554,480,1110,20,FALSE,FALSE,,,Good Harbor Beach Footbridge,,42.617633,-70.636018000000007
SA,807832,NA,465,975,9,63.75,150,129,480,1110,20,FALSE,FALSE,,,Bridge St - Variety Store,,42.55718938,-70.90931172
SA,807834,NA,480,985,9,63.125,85,67.5,480,1110,20,FALSE,FALSE,,,Beverly City Hall,,42.547765,-70.878915
SA,807835,NA,484.1175126121621,724.117512612162,3,119.99999999999997,120.00000000000006,120.00000000000004,480,1110,20,FALSE,FALSE,,,Cabot St & Elliot St,,42.55342289,-70.87855881
SA,807836,NA,844,988,2,144,144,144,480,1110,20,FALSE,FALSE,,,Cabot St & Rantoul St St,,42.5575768,-70.87930157
SA,807838,NA,495,1010,10,57.22222222222222,115,98.99999999999999,480,1110,20,FALSE,FALSE,,,Beverly Hospital,,42.56409,-70.874807
SA,807841,NA,470,1040,10,63.333333333333336,85,68.99999999999999,480,1110,20,FALSE,FALSE,,,Commuter Rail Station - Beverly,,42.54722244,-70.88525295
SA,807842,NA,473.103999172434,984,5,127.7240002068915,150,141.26880024826986,480,1110,20,FALSE,FALSE,,,Rantoul St & Edwards St,,42.5444147,-70.88505257
SA,807843,NA,477.2557976325576,984.6020588691822,5,126.83656530915616,146.98970565408933,138.99976063262318,480,1110,20,FALSE,FALSE,,,Cabot St & Highland Ave,,42.54504679,-70.88059742
SA,807846,NA,510,870,4,120,120,120,480,1110,20,FALSE,FALSE,,,Balch St Apartments,,42.56358294,-70.88879289
SA,807847,NA,523.0583097916146,523.0583097916146,1,NA,-Inf,NA,480,1110,20,FALSE,NA,,,Essex St - Kelleher Apartments,,42.565066,-70.864639
SA,807848,NA,525,1015,5,122.5,130,127,480,1110,20,FALSE,FALSE,,,Turtle Creek Apartments,,42.5707933241279,-70.8555156971967
SA,807849,NA,523.3980324747375,1012,5,122.15049188131562,130,127,480,1110,20,FALSE,FALSE,,,YMCA,,42.5663632267737,-70.861930167984
SA,807850,NA,530,1025,5,123.75,135,130.5,480,1110,20,FALSE,FALSE,,,Cedar St Apartments,,42.555683,-70.871121
SA,807851,NA,505,1002,5,124.25,137,132.26111011402674,480,1110,20,FALSE,FALSE,,,Council on Aging,,42.56101129,-70.87408304
SA,807854,NA,511.1955283124561,919.9966205839736,8,58.40015603878822,85.15766282433697,85.15766282433682,480,1110,20,FALSE,FALSE,,,Cummings Center,,42.5574642068768,-70.8869071908568
SA,807855,NA,545,935,5,97.5,120,120,480,1110,20,FALSE,FALSE,,,Stop & Shop,,42.554993,-70.885912
SA,807857,NA,490,990,5,125,140,134,480,1110,20,FALSE,FALSE,,,Garden City Apartments,,42.559606,-70.881037
SA,807864,NA,515,1007,5,123,132,128.4,480,1110,20,FALSE,FALSE,,,North Beverly Plaza - Shaw's,,42.57686742,-70.88870172
SA,815374,NA,541,1018,5,119.25,120,120,480,1110,20,FALSE,FALSE,,,Good Harbor Beach,,42.6226402,-70.63188649
WD,2597088,NA,403,977.7630433978156,6,114.95260867956313,149.83227436070342,137.89936461642205,420,1140,15,FALSE,FALSE,,,Bridge St & Livingstone Ave,,42.5502052020573,-70.8938051641689
WD,2597090,NA,600.5415648252406,600.5415648252406,1,NA,-Inf,NA,420,1140,15,FALSE,NA,,,Cabot St - Ellis Square YMCA,,42.5492161369004,-70.8779843430412
WD,2597091,NA,528.6069613728149,1020,5,122.84825965679627,133,129.1,420,1140,15,FALSE,FALSE,,,Montserrat Station,,42.5618946873959,-70.8689542157384
WD,3460636,NA,498.1756652975744,998.1756652975745,5,125.00000000000001,140,134.00000000000003,420,1140,15,FALSE,FALSE,,,NorthShore Education Consortium,,42.569392304805604,-70.8788595457585
WD,3460638,NA,500,1000,5,125,140,134,420,1140,15,FALSE,FALSE,,,Whole Foods Shopping,,42.5730988511098,-70.879196262258
WD,3460639,NA,500.4457369113923,1000.178294764557,5,124.93313946329117,139.73255785316462,133.81279049721525,420,1140,15,FALSE,FALSE,,,133 Brimbal Ave Dialysis,,42.5742590980758,-70.8772725402071
WD,3460640,NA,501.2377640834209,1000.4951056333684,5,124.81433538748688,139.25734154994745,133.48013908496324,420,1140,15,FALSE,FALSE,,,128 Cycles,,42.5715297494344,-70.8752885791225
WD,3460642,NA,513.7770789078226,873.7770789078227,3,180.00000000000006,240.0000000000001,228.00000000000009,420,1140,15,FALSE,FALSE,,,Henry's Food Mart,,42.571743870978,-70.8935987186822
WD,3460643,NA,560,945,4,128.33333333333334,145,140,420,1140,15,FALSE,FALSE,,,Trask Ln & Folly Hill,,42.5685642413802,-70.907498442901
WD,3460645,NA,401.7776021959894,826.1394862195981,5,106.09047100590217,120,120,420,1140,15,FALSE,FALSE,,,Giles Ave,,42.5530575381212,-70.9035006327614
WD,3460646,NA,448,448,1,NA,-Inf,NA,420,1140,15,FALSE,NA,,,McPherson Dr & Elliott St,,42.5559783168585,-70.8857557170421
WD,3460647,NA,532.1578541173443,1027,5,123.71053647066393,135,130.75264376479672,420,1140,15,FALSE,FALSE,,,Beverly Library,,42.551213500289,-70.8764826769488
WD,3460648,NA,575,960,4,128.33333333333334,145,140,420,1140,15,FALSE,FALSE,,,Market Basket,,42.5509328333064,-70.9327668707202
WD,3460649,NA,507.464825006677,627.4648250066771,2,120.00000000000006,120.00000000000006,120.00000000000006,420,1140,15,FALSE,FALSE,,,Cabot Plaza,,42.5589889665313,-70.8822133230542
WD,798299,NA,387,1043.4043799651317,16,43.76029199767545,105,60,420,1140,15,FALSE,FALSE,,,Addison Gilbert Hospital,,42.6259314,-70.6799482
WD,798300,NA,381,966,6,117,120,120,420,1140,15,FALSE,FALSE,,,Annisquam Village Church,,42.66154202,-70.67109183
WD,798305,NA,520,1000,5,120,120,120,420,1140,15,FALSE,FALSE,,,Atlantic St & Moorland Rds,,42.6102123,-70.6339853
WD,798312,NA,1038.9028387982378,1038.9028387982378,1,NA,-Inf,NA,420,1140,15,FALSE,NA,,,Blackburn Industrial Park,,42.627331,-70.654977
WD,798314,NA,534,1014,5,120,120,120,420,1140,15,FALSE,FALSE,,,Cape Hedge Inn,,42.641125,-70.600708
WD,798323,NA,528,1048.9901546030471,10,57.88779495589412,60,60,420,1140,15,FALSE,FALSE,,,Curtis - Clark Building,,42.6158244,-70.6599199
WD,798325,NA,366,1081,22,34.04761904761905,105,55,420,1140,15,FALSE,FALSE,,,Dock Square,,42.65857813,-70.61738533
WD,798326,NA,395,1105,75,9.594594594594595,45,27,420,1140,15,FALSE,TRUE,,,Dunkin' Donuts,,42.6136316,-70.6592043
WD,798331,NA,551,1031,5,120,120,120,420,1140,15,FALSE,FALSE,,,East Main St & Rocky Neck Ave,,42.6034725,-70.6545933
WD,798338,NA,470,1010,5,135,180,162,420,1140,15,FALSE,FALSE,,,Essex Ave & Magnolia Ave,,42.61071203,-70.70788133
WD,798339,NA,460,1000,5,135,180,162,420,1140,15,FALSE,FALSE,,,Essex Ave & Concord St,,42.61766504,-70.71135832
WD,798340,NA,467,1007,5,135,180,162,420,1140,15,FALSE,FALSE,,,Essex Ave & Lawrence Mountain Rd,,42.6230225,-70.7294938
WD,798341,NA,473,1013,5,135,180,162,420,1140,15,FALSE,FALSE,,,Essex Ave & Edgewood Rd,,42.6138101,-70.6890008
WD,798342,NA,461,1001,5,135,180,162,420,1140,15,FALSE,FALSE,,,Essex Ave & Fernald St,,42.6220192,-70.7262721
WD,798343,NA,465,1005,5,135,180,162,420,1140,15,FALSE,FALSE,,,Essex Ave & Forest Ln,,42.6238669,-70.7366911
WD,798344,NA,468,1008,5,135,180,162,420,1140,15,FALSE,FALSE,,,Essex Ave & New Way Ln,,42.6174769,-70.7146807
WD,798345,NA,464,1004,5,135,180,162,420,1140,15,FALSE,FALSE,,,Essex Ave & Woodman St,,42.6261137,-70.7456615
WD,798346,NA,462,1002,5,135,180,162,420,1140,15,FALSE,FALSE,,,Essex Ave & Sumner St,,42.6237685,-70.7360583
WD,798347,NA,463,1003,10,60,180,131.99999999999994,420,1140,15,FALSE,FALSE,,,Essex Town Line,,42.628692,-70.7503357
WD,798351,NA,496,1036,10,60,60,60,420,1140,15,FALSE,FALSE,,,Gloucester Crossing,,42.62366,-70.661748
WD,798352,NA,487,1027,10,60,60,60,420,1140,15,FALSE,FALSE,,,Gloucester High School,,42.613532,-70.6751916
WD,798353,NA,390,1110,23,32.72727272727273,60,49,420,1140,15,FALSE,FALSE,,,Commuter Rail Station - Gloucester,,42.61657151,-70.66754752
WD,798354,NA,525,1005,5,120,120,120,420,1140,15,FALSE,FALSE,,,Good Harbor Beach,,42.6225644,-70.63198094
WD,798355,NA,425,970,5,136.25,180,163.5,420,1140,15,FALSE,FALSE,,,Hammond Castle,,42.5856884,-70.6931195
WD,798356,NA,456,996,5,135,180,162,420,1140,15,FALSE,FALSE,,,Heights at Cape Ann,,42.6139683,-70.6886748
WD,798358,NA,378,963,6,117,120,120,420,1140,15,FALSE,FALSE,,,Lanesville Post Office,,42.67765898,-70.65877859
WD,798362,NA,429.26612877578793,974.2661287757879,5,136.25,180,163.5,420,1140,15,FALSE,FALSE,,,Lexington Ave & Flume Rd,,42.5760471005007,-70.7123213362457
WD,798364,NA,486,1026,10,60,60,60,420,1140,15,FALSE,FALSE,,,Lincoln Park,,42.6155158,-70.6739164
WD,798368,NA,428,975,15,39.07142857142857,178,121.50000000000001,420,1140,15,FALSE,FALSE,,,Magnolia Square,,42.5772319,-70.7146661
WD,798369,NA,416,1106,43,16.428571428571427,55.39045318532544,30.39045318532544,420,1140,15,FALSE,FALSE,,,Main St & Pleasant St,,42.612909,-70.6615456
WD,798372,NA,517,1046.2641787843547,10,58.80713097603942,60,60,420,1140,15,FALSE,FALSE,,,Sheedy Park,,42.6164762668077,-70.6630988081787
WD,798374,NA,523,1047.7675962631781,10,58.30751069590868,60,60,420,1140,15,FALSE,FALSE,,,McPherson Park,,42.614762904496,-70.6664177209412
WD,798375,NA,507,1042.6542326975741,10,59.517136966397125,60,60,420,1140,15,FALSE,FALSE,,,Millpond Medical Building,,42.6282009,-70.6779186
WD,798376,NA,517,997,5,120,120,120,420,1140,15,FALSE,FALSE,,,Niles Beach,,42.5969526,-70.6537327
WD,798380,NA,372,957,6,117,120,120,420,1140,15,FALSE,FALSE,,,Pigeon Cove Post Office,,42.676514,-70.624529
WD,798381,NA,511,1044.730907907046,10,59.303434211894,60,60,420,1140,15,FALSE,FALSE,,,Poplar Park,,42.6245296,-70.6697089
WD,798382,NA,524,1048.2738652556006,10,58.25265169506674,60,60,420,1140,15,FALSE,FALSE,,,Post Office - City Hall,,42.6140742,-70.6632582
WD,798386,NA,436,981,5,136.25,180,163.5,420,1140,15,FALSE,FALSE,,,Ravenswood Park,,42.5944782,-70.6890026
WD,798387,NA,365,1133,44,17.86046511627907,102,47,420,1140,15,FALSE,FALSE,,,Rockport Market,,42.65695599,-70.61834408
WD,798388,NA,369,1131,13,63.5,117,117,420,1140,15,FALSE,FALSE,,,Train Station - Rockport,,42.6562961,-70.6260404
WD,798390,NA,530,1050,10,57.77777777777778,60,60,420,1140,15,FALSE,FALSE,,,Senior Center - Dunkin' Donuts,,42.613531,-70.659259
WD,798395,NA,422,983,10,62.333333333333336,164,119.99999999999996,420,1140,15,FALSE,FALSE,,,Western Ave & Stage Fort Park,,42.6084293,-70.6781411
WD,798400,NA,366,1081.2070992178003,17,44.70044370111252,105,60.00000000000006,420,1140,15,FALSE,FALSE,,,Toad Hall Bookstore,,42.6583104,-70.6193554
WD,798414,NA,458,1011,10,61.44444444444444,167,118.99999999999996,420,1140,15,FALSE,FALSE,,,Train Station - West Gloucester,,42.61159669,-70.70503616
WD,798415,NA,453.08797035391706,993.0879703539171,5,135,180,162,420,1140,15,FALSE,FALSE,,,Western Ave & Centennial Ave,,42.6101892,-70.6725996
WD,798417,NA,434,979,5,136.25,180,163.5,420,1140,15,FALSE,FALSE,,,Western Ave & Magnolia Ave,,42.5852725,-70.7167935
WD,801985,NA,531,1011,5,120,120,120,420,1140,15,FALSE,FALSE,,,Cape Hedge Inn,,42.64096276,-70.60067876
WD,801986,NA,458,1090,32,20.387096774193548,32,32,420,1140,15,FALSE,FALSE,,,Stop & Shop - CVS,,42.61859043,-70.6424938
WD,801990,NA,460,1087,22,29.857142857142858,33,33,420,1140,15,FALSE,FALSE,,,Shaw's Supermarket,,42.62291714,-70.64021734
WD,802509,NA,453,1113,7,110,120,120,420,1140,15,FALSE,FALSE,,,Addison Gilbert Hospital,,42.62598563,-70.67980067
WD,802510,NA,459,1119,7,110,120,120,420,1140,15,FALSE,FALSE,,,Annisquam Village Church,,42.6615894,-70.6709644
WD,802517,NA,462,1122,7,110,120,120,420,1140,15,FALSE,FALSE,,,Lanesville Post Office,,42.677583,-70.658737
WD,802518,NA,468,1128,7,110,120,120,420,1140,15,FALSE,FALSE,,,Pigeon Cove Post Office,,42.6765189,-70.6243815
WD,807762,NA,515,995,5,120,120,120,420,1140,15,FALSE,FALSE,,,East Main St & Rocky Neck Ave,,42.6035311,-70.6546882
WD,807764,NA,546,1026,5,120,120,120,420,1140,15,FALSE,FALSE,,,Atlantic St & Moorland Rds,,42.6102086,-70.6341039
WD,807765,NA,549,1029,5,120,120,120,420,1140,15,FALSE,FALSE,,,Niles Beach,,42.59705622,-70.65368713
WD,807773,NA,545,1025,5,120,120,120,420,1140,15,FALSE,FALSE,,,Good Harbor Beach Footbridge,,42.617633,-70.636018000000007
WD,807832,NA,401,975,11,57.4,150,122.99999999999999,420,1140,15,FALSE,FALSE,,,Bridge St - Variety Store,,42.55718938,-70.90931172
WD,807834,NA,430,985,10,61.666666666666664,85,64.99999999999999,420,1140,15,FALSE,FALSE,,,Beverly City Hall,,42.547765,-70.878915
WD,807835,NA,602,602,1,NA,-Inf,NA,420,1140,15,FALSE,NA,,,Cabot St & Elliot St,,42.55342289,-70.87855881
WD,807836,NA,487.16568900149684,988,5,125.20857774962579,144,136.8,420,1140,15,FALSE,FALSE,,,Cabot St & Rantoul St St,,42.5575768,-70.87930157
WD,807838,NA,495,1010,10,57.22222222222222,115,98.99999999999999,420,1140,15,FALSE,FALSE,,,Beverly Hospital,,42.56409,-70.874807
WD,807841,NA,408,1030,12,56.54545454545455,85,65,420,1140,15,FALSE,FALSE,,,Commuter Rail Station - Beverly,,42.54722244,-70.88525295
WD,807842,NA,473.103999172434,981.551999586217,5,127.11200010344575,148.448000413783,140.1824005379179,420,1140,15,FALSE,FALSE,,,Rantoul St & Edwards St,,42.5444147,-70.88505257
WD,807843,NA,477.2557976325576,983.6278988162787,5,126.59302529593029,146.37210118372116,138.5372101183721,420,1140,15,FALSE,FALSE,,,Cabot St & Highland Ave,,42.54504679,-70.88059742
WD,807846,NA,510,870,4,120,120,120,420,1140,15,FALSE,FALSE,,,Balch St Apartments,,42.56358294,-70.88879289
WD,807847,NA,523.0583097916148,523.0583097916148,1,NA,-Inf,NA,420,1140,15,FALSE,NA,,,Essex St - Kelleher Apartments,,42.565066,-70.864639
WD,807848,NA,525,1015,5,122.5,130,127,420,1140,15,FALSE,FALSE,,,Turtle Creek Apartments,,42.5707933241279,-70.8555156971967
WD,807849,NA,523.3980324747375,1013.1230963325446,5,122.43126596445177,131.1230963325446,128.12309633254458,420,1140,15,FALSE,FALSE,,,YMCA,,42.5663632267737,-70.861930167984
WD,807850,NA,530,890,4,120,120,120,420,1140,15,FALSE,FALSE,,,Cedar St Apartments,,42.555683,-70.871121
WD,807851,NA,492.82840820607015,1002,6,101.83431835878596,137,130.2,420,1140,15,FALSE,FALSE,,,Council on Aging,,42.56101129,-70.87408304
WD,807852,NA,456,456,1,NA,-Inf,NA,420,1140,15,FALSE,NA,,,Gloucester Crossing,,42.55752805,-70.88011993
WD,807853,NA,460,460,1,NA,-Inf,NA,420,1140,15,FALSE,NA,,,Rantoul St & Elliott St,,42.55489785,-70.88148184
WD,807854,NA,511.1955283124561,919.9966205839736,7,68.13351537858625,120.00000000000034,102.57883141216848,420,1140,15,FALSE,FALSE,,,Cummings Center,,42.5574642068768,-70.8869071908568
WD,807855,NA,545,935,5,97.5,120,120,420,1140,15,FALSE,FALSE,,,Stop & Shop,,42.554993,-70.885912
WD,807857,NA,490,990,5,125,140,134,420,1140,15,FALSE,FALSE,,,Garden City Apartments,,42.559606,-70.881037
WD,807864,NA,515,1007,5,123,132,128.4,420,1140,15,FALSE,FALSE,,,North Beverly Plaza - Shaw's,,42.57686742,-70.88870172
WD,807884,NA,421,421,1,NA,-Inf,NA,420,1140,15,FALSE,NA,,,Cabot St & Edwards St,,42.54338351,-70.88281124
WD,807887,NA,433,433,1,NA,-Inf,NA,420,1140,15,FALSE,NA,,,Elliott St & Cabot St,,42.55370618,-70.87896392
WD,807888,NA,435,435,1,NA,-Inf,NA,420,1140,15,FALSE,NA,,,Rantoul St & Broadway,,42.54797394,-70.88414638
WD,807891,NA,452,452,1,NA,-Inf,NA,420,1140,15,FALSE,NA,,,Elliott St & Beckford St,,42.555453,-70.884629
WD,807892,NA,455,455,1,NA,-Inf,NA,420,1140,15,FALSE,NA,,,Herrick St & Sohier Rd,,42.5630074,-70.87965641
WD,807893,NA,465,465,1,NA,-Inf,NA,420,1140,15,FALSE,NA,,,Elliott St & Bridge St,,42.55755304,-70.90862432
WD,807895,NA,427,427,1,NA,-Inf,NA,420,1140,15,FALSE,NA,,,Pleasant St & Cabot St,,42.54430039,-70.8813523
WD,815374,NA,538,1018,5,120,120,120,420,1140,15,FALSE,FALSE,,,Good Harbor Beach,,42.6226402,-70.63188649
