"","stop_id","passing_values","frequent_stop","stop_name","geometry","RTA"
"1","0033fe20-3ebf-4ffc-ba74-723fde22fefb",1,FALSE,"South St & Hayward St",c(196258.532609293, 883856.470012145),"MW"
"2","0102c992-9895-4ccf-8ea1-d469fefb1dc1",1,FALSE,"Newton and Weed St",c(195826.156022113, 899507.210616784),"MW"
"3","02f044a5-b26f-4a43-b319-346c57906bd5",1,FALSE,"Route 85 & Route 135",c(198188.815844155, 886445.164056286),"MW"
"4","038a8988-55e4-4a23-959d-b44372917669",0,FALSE,"Machado House",c(194459.847863817, 904923.216651929),"MW"
"5","06cdfc3a-7463-45b1-8c02-f41ef532498c",1,FALSE,"Maple St / Walker St",c(196614.794931761, 898072.701296081),"MW"
"6","08763347-0cd0-4182-bd93-94b4bf79b609",0,FALSE,"Mission Springs",c(204622.711225978, 880977.583842342),"MW"
"7","0895529e-8620-49e2-96b7-b2bc7482193b",1,FALSE,"Avenu at Natick",c(209910.740141996, 894510.581031102),"MW"
"8","08a05c14-2db4-40b3-9def-f3deaa85c216",0,FALSE,"Carlson Rd",c(208495.845433414, 891387.94706896),"MW"
"9","08bddd79-9213-464e-bbb5-226afb92a77a",1,FALSE,"Mathworks Lakeside",c(210236.695661102, 894691.592103126),"MW"
"10","0a4cc4a9-cd68-46f2-b3ed-28b2147f14fd",0,FALSE,"Halstead Apartments Rear Parking",c(202406.227355551, 893679.645416084),"MW"
"11","0a959b0e-7d4c-4b4c-90b0-72ee387a9387",1,FALSE,"Vernon St & Pleasant St",c(205269.960481652, 894482.462621346),"MW"
"12","0b9f2b69-08e3-45ce-a6f4-e4c529c11701",0,FALSE,"Milford Police and Post Office",c(198249.546409344, 876517.471239146),"MW"
"13","0c31e628-5b24-44fa-808c-f24b81e1edb3",1,FALSE,"Downtown Southborough",c(197854.416075847, 895030.363432209),"MW"
"14","0d563411-d457-4657-9811-baaf24b4cea7",0,FALSE,"Central St & Route 30",c(199207.911542213, 894633.539181005),"MW"
"15","120ef11b-8a1f-4058-a462-450201afcde8",1,FALSE,"Holliston Congregational Church",c(205849.377379876, 883451.092693744),"MW"
"16","12b6eec7-547f-45cf-becb-2846be5028a5",0,FALSE,"Milford Shaws/Wallgreens",c(197132.206197756, 876422.205262467),"MW"
"17","1960ce3a-fc28-4f04-901e-25703c6a0f40",0,FALSE,"Arsenal Rd",c(207368.090992165, 893918.024406598),"MW"
"18","1965cd2d-df70-4cc7-aff6-589b0be9138c",0,FALSE,"Fruit St / S. Mail St",c(198282.765409406, 875895.409212063),"MW"
"19","1b9378ff-35b5-4642-ba52-662ba5384f4a",0,FALSE,"Arlington St/Waushakum St",c(206803.474908625, 891197.669129719),"MW"
"20","1bdefae5-45ed-4fe7-ab0f-d92b7e1a4320",0,FALSE,"Route 9/Beacon St",c(207519.052471214, 894205.965926516),"MW"
"21","1d2d1903-683f-4059-9a2c-98ec0599e027",1,FALSE,"Chinese Gospel Church",c(199610.930413657, 893779.79495149),"MW"
"22","1dd033e2-d1ac-413a-a0dc-2d1a6d84d450",1,FALSE,"Maple St / S. Mill St",c(196617.713207793, 897935.652381239),"MW"
"23","1ec91042-4319-40bf-b4ed-62d37f2cc0e5",0,FALSE,"Marlborough Hospital",c(195478.397657685, 900362.18841874),"MW"
"24","1f409f79-be89-4902-9cd6-5849c28cc1d9",0,FALSE,"MCI/Adesa",c(207610.772582986, 890382.626918104),"MW"
"25","1fd95a95-e63a-4fc2-ae07-5590f1e02017",1,FALSE,"Cedar Street",c(220735.169099158, 896463.565140575),"MW"
"26","2084f27d-e861-4134-8367-842a0e9d8645",1,FALSE,"Natick Common",c(212595.329653294, 892600.647482113),"MW"
"27","21609f30-afce-446f-a930-19f66a023574",1,FALSE,"500 Staples Dr rear Entrance",c(200596.578780023, 893368.223542873),"MW"
"28","2201cb43-0df7-4b53-a688-cfc750958ae8",0,FALSE,"Milford Town Hall- Route 14",c(198512.376476793, 876892.341600659),"MW"
"29","266a135e-4851-4d05-8bcf-3b9726df2bc6",0,FALSE,"Franklin St & Proctor St",c(206699.473827293, 892131.865150867),"MW"
"30","2b621cd7-1638-4d23-896f-72c168805a0a",0,FALSE,"Highland Commons- Bed Bath Beyond",c(192032.245725966, 904982.307700313),"MW"
"31","2f68e90d-cb3e-4ec3-b2c4-44d403e5748e",0,FALSE,"9/27 Shopping Plaza",c(211615.276202342, 894522.119222165),"MW"
"32","323865ce-1587-4c30-949f-d5682d4d32b4",0,FALSE,"Hudson Senior Center",c(194502.002503954, 904749.78620336),"MW"
"33","3603c005-0250-4761-b1dc-ecafe6315f58",0,FALSE,"Framingham High School",c(208225.753553521, 896528.510156979),"MW"
"34","370b8338-7732-415a-accd-cc370c5bcbf0",0,FALSE,"Beaver St & Second St",c(208074.668076995, 891519.356289711),"MW"
"35","39f836a1-5c3d-434d-80fc-f3131b7c13c0",1,FALSE,"Edmans House",c(205152.251735387, 897690.190300966),"MW"
"36","3aafcbf7-e332-4b5b-b805-6a5a422ca195",0,FALSE,"Lincoln St & Pleasant St",c(195092.299622098, 899491.66307937),"MW"
"37","3b5930ba-f70e-4f74-a74d-a14da1918e43",1,FALSE,"Roche Bros.",c(210154.566913578, 892405.207626001),"MW"
"38","3ef7ac24-c8f0-4b6b-a81c-913ae133d342",0,FALSE,"Concord St/ Anzio Rd",c(207489.588458123, 893627.657783681),"MW"
"39","40ca3b9f-9c89-4c79-84ed-69ea15a8a6b5",0,FALSE,"Holliston Public Library",c(205833.057225346, 883364.383917387),"MW"
"40","4175c54c-36a6-47cc-8f1b-f39575347fd7",0,FALSE,"Solomon Pond Mall",c(190732.412384075, 900518.520236804),"MW"
"41","422bef0c-2874-476a-9ecc-b34ee8993142",0,FALSE,"Kendall Plaza",c(208889.332254971, 892462.606091618),"MW"
"42","444c6537-938f-4597-ab80-3e067bf0b865",1,FALSE,"Shaws Supermarket",c(205568.370011222, 887814.987953808),"MW"
"43","45bcc3cf-e80e-4180-92de-3b5581d86719",0,FALSE,"Birmingham Court",c(198456.604993689, 877863.271630325),"MW"
"44","486fdfee-0b1e-415b-84e6-1f59068f0ffd",1,FALSE,"Walmart",c(208205.576909583, 894422.678361489),"MW"
"45","488be29e-7723-4630-bdd5-aee6cf1d4e34",1,FALSE,"Rt 9 East Park & Ride",c(201349.648127509, 893991.888754468),"MW"
"46","48a17140-5009-49fc-96f7-75b0e626891c",1,FALSE,"Flutie Pass Park and Ride",c(208995.60099311, 894476.876903162),"MW"
"47","494a35b9-3c27-46f6-8ded-e8043880a2e0",1,FALSE,"Cirrus Apartments",c(201788.05617385, 889533.525542185),"MW"
"48","496776cd-d98a-4704-985c-7f39e018aa3f",0,FALSE,"Wayside Inn Store/ Hager St",c(201022.844599068, 900126.783664604),"MW"
"49","4abd44aa-df5f-4d82-a1bd-f5b3b82b9a6d",1,FALSE,"Wellesley Office Park",c(220347.428549268, 897423.244665505),"MW"
"50","4c2e7f99-08ae-4d04-b1d1-8ee2f68866ad",0,FALSE,"Kansas St & Route 27",c(211842.503477173, 893457.951383703),"MW"
"51","4c62b8c3-5378-4ef4-9706-87e30e2c1708",1,FALSE,"Newton-Wellesley Hospital",c(220899.764957832, 898024.896940362),"MW"
"52","4ef1e39b-96d3-402b-8f82-bcda377125be",0,FALSE,"Milford Senior Center",c(198720.205523396, 876713.251639467),"MW"
"53","50f02614-d7ed-4faa-b21f-27c8d21dab28",1,FALSE,"Broad St / Lincoln St",c(194813.871407553, 899264.922589742),"MW"
"54","517a9cbd-8ef2-4b39-ae46-f018cb8a8bc6",0,FALSE,"Maher Court",c(199030.279159636, 877459.340008089),"MW"
"55","58f9b39e-73ae-48fb-9178-5c69de45b399",0,FALSE,"Milford Regional Medical Center",c(197615.378382831, 875808.611147435),"MW"
"56","5b5eba65-15c5-4fef-b902-1e297ba4d8e0",0,FALSE,"Kohls",c(208476.002446303, 894725.745911001),"MW"
"57","5bc0337e-0145-41d3-b825-4285af3fbda0",1,FALSE,"Super Stop and Shop",c(208103.028735648, 895058.190046735),"MW"
"58","5e463b38-2425-4526-a4ab-a4e8f745a4ad",1,FALSE,"MassBay Community College",c(219541.966812044, 895743.466649045),"MW"
"59","5ec0f6f9-8492-4516-bb0e-cbc6b5313d1c",0,FALSE,"BJs Wholesale Club ",c(208319.893362964, 895168.727124649),"MW"
"60","6250e0b1-76d5-4a93-9725-ae0d594d6910",2,FALSE,"Natick Mall - Wegmans",c(209371.030525754, 894560.190984639),"MW"
"61","651767dd-06d3-418b-be32-ee1befeff801",1,FALSE,"Framingham State University",c(205176.05304189, 894140.775077059),"MW"
"62","653a7026-997d-4f7c-948b-4d4a655599a0",0,FALSE,"Spruce St",c(198401.843251331, 876864.510380696),"MW"
"63","6b60b122-63e6-446b-91aa-a6068aba603f",0,FALSE,"Apex Entertainment",c(192451.137273118, 898575.865449552),"MW"
"64","6e32ef0c-ef95-4d54-bfab-4fde5006304a",1,FALSE,"New York Ave",c(200972.591896148, 894373.322273837),"MW"
"65","6f5c1a02-d531-4ea0-87a5-a18cca2a7605",1,FALSE,"PriceChopper Hopkinton",c(195739.303745265, 884351.613522914),"MW"
"66","72270960-236c-4e3c-b7fe-63d97deaca92",0,FALSE,"Hudson WalMart",c(195133.313633384, 902722.632236381),"MW"
"67","72eeb424-870f-4754-ab60-975e5776f34d",1,FALSE,"Marlborough City Hall",c(196223.135254624, 899598.450669723),"MW"
"68","73a8ce41-f167-402d-880d-7902aa6f4bad",1,FALSE,"Sherwood Village on Mill St.",c(209596.600556196, 893113.611368165),"MW"
"69","743e3da4-73f1-4dc4-b3f5-96fb2ec75deb",0,FALSE,"Colonial Rd Capital Rd Housing",c(196936.651358424, 878496.251064033),"MW"
"70","76b2f346-87aa-4f7c-b669-bed0672dee06",1,FALSE,"Oak St",c(213854.536429632, 894805.787399037),"MW"
"71","77f43449-c9d4-441a-abf1-6d885a14f6f6",1,FALSE,"Franklin / Mt. Wayte",c(205883.015038389, 893289.771180418),"MW"
"72","7c48755d-4bee-4a8d-b4f4-364c172a30e7",0,FALSE,"Lincoln St & Pearl St",c(206926.588050311, 892404.732310533),"MW"
"73","7ca11456-969c-43d0-a3e6-d0b6dcd50a10",0,FALSE,"Tarelli Ter/Waverly St",c(207991.713319306, 892152.430577693),"MW"
"74","7e3c3f82-c136-40a4-aea1-d2303c9690dd",1,FALSE,"Woodland MBTA Train Station",c(221171.965098025, 898108.536218163),"MW"
"75","7f81b88d-02a0-463a-be76-ae4e76d91da1",1,FALSE,"Staples Drive",c(200960.228697715, 893399.992982597),"MW"
"76","800f4da6-9579-4f8b-8578-e950905f3053",0,FALSE,"Math Works",c(212349.159811393, 894470.793381342),"MW"
"77","81058253-713e-4d79-bba8-b8f8b1abcd39",1,FALSE,"Milford Crossing",c(200962.036415905, 877721.209837565),"MW"
"78","82afee5a-a373-4673-b9d0-cab9c40edce6",0,FALSE,"Bethany Hill",c(205558.92433563, 890896.677660991),"MW"
"79","82e716bb-1434-4367-87eb-181ea29743e5",1,FALSE,"Cedar Terrace",c(211904.069272234, 891394.079392998),"MW"
"80","861050c3-7b47-4045-bd18-cd9ad9f9fa84",0,FALSE,"Riverside Station",c(220455.946297538, 898535.138523199),"MW"
"81","881ad83b-9563-4ae5-8569-032768b27578",0,FALSE,"Hannafords Plaza Marlborough",c(192451.609630373, 898809.888882131),"MW"
"82","8836b64d-6492-4cad-aee4-dff14001f563",1,FALSE,"Memorial House (Winthrop & Hollis)",c(206601.465594828, 891069.517632768),"MW"
"83","8caf7e5e-b0c7-4529-93bf-63ae813100fb",0,FALSE,"Highland Common- Market Basket",c(192169.000031839, 905132.312495156),"MW"
"84","8ce8dafa-ec6e-4f35-a576-d5c1d552ba09",0,FALSE,"Simrah Gardens",c(191968.590449228, 905513.894288405),"MW"
"85","8ff6b02f-424d-47ac-bebe-221ff72ad6fe",0,FALSE,"Nobscot Shopping Center",c(205417.946826245, 897579.411417226),"MW"
"86","903773a0-1314-460e-9810-3c22b164c812",1,FALSE,"Crossing Blvd",c(200803.779173375, 893828.683258004),"MW"
"87","90c30055-3955-4685-b93c-1fef3ba34a72",1,FALSE,"California Ave",c(201429.446580765, 894228.011786144),"MW"
"88","90d27be8-691d-4ea4-adcc-00cbb1d5812e",0,FALSE,"Milford Library",c(198089.272349449, 877064.193776192),"MW"
"89","93c3d7b0-42dc-4d48-9737-1981aa9ab961",0,FALSE,"Hudson Stop and Shop",c(194783.763366458, 903066.994927583),"MW"
"90","971b9fce-55fe-420c-8e6a-550961919153",1,FALSE,"MetroWest Medical Center",c(206594.706044002, 892659.65709938),"MW"
"91","973e7245-055e-4757-a16e-259d6e4c6d02",0,FALSE,"Post Road Shopping Center",c(197034.122663825, 900144.615054693),"MW"
"92","983e3f34-0d83-4101-b4b5-a0ca7a043817",1,FALSE,"Hopkinton Center",c(198172.867904455, 886423.108920081),"MW"
"93","984664f1-2572-4ee0-a83c-4d3726e53cb7",0,FALSE,"Hudson Housing Authority",c(193964.945761762, 903760.940004858),"MW"
"94","9e7ed194-bd09-401e-9080-631f5fb9e4fa",0,FALSE,"Moran Park/Downtown MBTA",c(212556.525046339, 892786.083438323),"MW"
"95","a3640a4a-c010-4521-bc02-b37f2d886148",1,FALSE,"Cedar Gardens",c(211931.66625573, 891495.27205785),"MW"
"96","a3b507bc-cafe-4071-958c-dec4706d2474",1,FALSE,"Rose Kennedy Lane",c(207136.927043295, 893342.100845639),"MW"
"97","a47b8279-0bb0-4ade-9d53-0599d86376f4",0,FALSE,"Mall Rd/ Flutie Pass",c(209249.583019452, 894581.927897763),"MW"
"98","a8f64f01-0325-4fb4-bf93-aef4366af89f",1,FALSE,"Callahan Center",c(205960.21383615, 893682.801761006),"MW"
"99","a9cb54ef-5213-4abd-8314-1c47ee85a2a5",1,FALSE,"Framingham MBTA Station",c(206782.67710012, 891790.085602421),"MW"
"100","a9f61865-59af-41f8-95c8-547fa186ddb8",0,FALSE,"Nobscot Fire Station",c(205583.671261958, 897676.36808431),"MW"
"101","afec89f0-6720-473e-b019-2fb711b2003b",1,FALSE,"Academy Knoll Apartments",c(195016.283671366, 899055.480266568),"MW"
"102","b03a9fbb-fdfa-4ab5-9402-991021410042",1,FALSE,"Framingham Center",c(205397.635937393, 894448.620361832),"MW"
"103","b6082ce2-98f7-4a0a-a732-b515d167c4f8",0,FALSE,"Target Marlborough",c(199618.88436818, 899735.53686648),"MW"
"104","b6ba290f-922e-4480-b04f-445cbfc8ac13",0,FALSE,"Farm Road & Route 20",c(199319.757255508, 899707.405036441),"MW"
"105","b72833df-ee2d-46a5-8aa5-ccf9ec6143dd",1,FALSE,"Ashland High School",c(202274.884657714, 888902.062898334),"MW"
"106","b733ee7a-78ab-4474-b453-439df425e3fd",0,FALSE,"Senior Center",c(213392.736270536, 892860.481237531),"MW"
"107","b80dcf9b-8f7b-4b28-a288-01fbb3c2fc15",1,FALSE,"Concord St & Howard St/Downtown Common",c(206864.630815334, 891911.83206545),"MW"
"108","b9d83aa7-3d4f-43bb-886f-447d8d31b7df",1,FALSE,"St Patricks Manor",c(205774.715280026, 895335.250669674),"MW"
"109","bca44d7c-4431-4e9a-9156-5ae55ee413e4",1,FALSE,"Shoppers World Shelter",c(208664.549392432, 894374.766602209),"MW"
"110","bcc8eb6a-50a5-417d-b8db-117bc3f74984",1,FALSE,"White Bagley Rd & Boston Rd",c(198668.678148677, 894888.256533467),"MW"
"111","c0edc72a-7821-492a-a60a-a95bff165e98",0,FALSE,"Weston Rd",c(215446.104454583, 895000.670708489),"MW"
"112","c48fffe4-1842-4c6e-8999-7196473af1ae",0,FALSE,"Union Ave/ Lincoln St.",c(206464.512084809, 892739.117187375),"MW"
"113","cb816f41-d2a5-4e37-80a2-67be7895cfaa",1,FALSE,"Main St",c(196171.87954746, 899630.505910354),"MW"
"114","cd2f74e2-1bef-480b-8aee-6378137d7e1d",1,FALSE,"Homer Ave & Main St",c(202971.116670895, 889894.549613171),"MW"
"115","ce76635d-25b6-4a57-be84-d8d752274e48",2,FALSE,"Blandin Hub",c(207271.920595151, 891715.039044538),"MW"
"116","d05e1ba2-243c-487a-a043-fafbe84749ac",1,FALSE,"High St",c(205301.851554522, 894407.893915742),"MW"
"117","d380719e-09d7-4b21-9ec6-852e339ce2ce",1,FALSE,"Leonard Morse Hospital",c(213686.175435842, 892222.27841891),"MW"
"118","d40a3f8f-2d7f-4be2-9a4c-97c773cdf682",0,FALSE,"Milford Kohls",c(200876.934832407, 877492.098951199),"MW"
"119","d6e9d75f-ac14-4834-8840-7cffd1e4ff95",0,FALSE,"EMK Community Health",c(198445.603439726, 875221.778287136),"MW"
"120","d7eda352-7d9e-475f-82cd-25272993e8c8",0,FALSE,"Milford High School",c(197321.324095391, 877825.775843054),"MW"
"121","db6ae1dd-e747-431d-aa2a-93e552bdb6b4",0,FALSE,"Hannafords Plaza/ CVS",c(199817.436634012, 877750.193679188),"MW"
"122","e090f95b-ae87-482d-ae80-b41e78745b49",1,FALSE,"Sherwood Plaza",c(209448.61017851, 894267.28300838),"MW"
"123","e0cb1216-2b30-40e3-bd7c-345540011dd6",1,FALSE,"Market Basket",c(206028.129629073, 889668.158569661),"MW"
"124","e31c1291-d515-40be-9fa7-7c9957a40d91",1,FALSE,"Stop and Shop",c(204225.02126146, 894149.142054533),"MW"
"125","e64db440-9753-4405-b36b-0b2be2a507f6",2,FALSE,"Banana Lot/Intermodal Center",c(206802.845211314, 891848.934513652),"MW"
"126","e921d8eb-b80e-4a6e-a2fc-e44b2e898167",1,FALSE,"Ashland MBTA",c(201399.524012958, 890101.58027651),"MW"
"127","ebb1c886-7fc1-4fc9-8815-2d5b7e549418",0,FALSE,"East Main St Shelter at Beech St",c(198896.525175035, 877023.653217081),"MW"
"128","ee29f43e-5795-4735-b5e1-cdadde5ea0be",1,FALSE,"Newfield Drive West Central St",c(209110.315606234, 892396.600142479),"MW"
"129","ee992cdc-6325-4e10-81e4-478fe91cb0c9",0,FALSE,"Pinefield",c(208027.324823594, 897293.113499244),"MW"
"130","f1b3715d-148f-4a30-845f-45dcf2b67488",0,FALSE,"Route 20 & Felton St",c(193513.397390787, 898983.874194049),"MW"
"131","f22eb7a5-49ec-4a71-9166-a2c5ad582e52",1,FALSE,"Coolidge Gardens",c(212613.362216866, 892239.936417075),"MW"
"132","f5053b07-3236-4a92-8811-55c2dd7ee000",1,FALSE,"Second St at Rec Center",c(208241.899896617, 891804.741418642),"MW"
"133","f50f48a6-e47a-4c1c-8f35-a80047ac2bc6",1,FALSE,"Halstead Apartments",c(202526.22250449, 893682.517793856),"MW"
"134","f645b13e-55df-443e-bf7b-cd29dcbc7fbd",0,FALSE,"Central St / Cherry St",c(199478.453086614, 893971.966453061),"MW"
"135","fc96bab4-cc32-4985-ac8e-79c75beac40e",1,FALSE,"MassBay Community College",c(207171.287908126, 893432.979749299),"MW"
"136","fd7793f9-4f75-4421-b972-2b0c2d54bc69",0,FALSE,"Milford Target",c(200007.868790411, 878893.010154518),"MW"
"137","ff763433-1760-4b95-ab97-c2ff6dae38ff",0,FALSE,"Esplanade Housing",c(195015.927968363, 904627.398935167),"MW"
