"","stop_id","passing_values","frequent_stop","stop_name","geometry","RTA"
"1","2537977",2,FALSE,"Market Basket",c(237046.356054888, 871600.779768813),"BAT"
"2","2558590",0,FALSE,"Belair St at 7-Eleven",c(238288.04245837, 871060.576897913),"BAT"
"3","2558591",1,FALSE,"Belair St at 7-Eleven",c(238276.159256453, 871063.151962063),"BAT"
"4","2558592",0,FALSE,"Belair St at Colonel Bell Drive",c(238274.866221635, 871261.235364078),"BAT"
"5","2558593",1,FALSE,"Belair St at Belair Hi Rise",c(238250.192543924, 871377.438584342),"BAT"
"6","2558594",0,FALSE,"Belair St at Belair Hi Rise",c(238258.940143158, 871379.48209503),"BAT"
"7","2558595",1,FALSE,"Belair St at Earle St",c(238222.012639763, 871543.163918874),"BAT"
"8","2558596",1,FALSE,"Belair St at Coventry Cir",c(238181.506945443, 871831.694640347),"BAT"
"9","2558597",0,FALSE,"Belair St at Coventry Cir",c(238193.437058277, 871833.33006388),"BAT"
"10","2558598",0,FALSE,"Belair St at Anne Ave",c(238165.601621727, 872065.401244939),"BAT"
"11","2558599",0,FALSE,"Belair Street and Tucker Drive",c(238150.264557551, 872201.649064045),"BAT"
"12","2558600",2,FALSE,"Campanelli Dr at Work Out World",c(237008.336070741, 872361.987000467),"BAT"
"13","2558601",0,FALSE,"Oak St at Walmart",c(236759.302272828, 872434.844611038),"BAT"
"14","2558602",0,FALSE,"Oak St at Walmart",c(236768.494051464, 872418.362436236),"BAT"
"15","2558603",0,FALSE,"Oak St in front of Wendys",c(236872.41004483, 872434.610874615),"BAT"
"16","2558605",0,FALSE,"Park St across from Canterbury Arms Apts",c(235822.407270073, 872328.848599423),"BAT"
"17","2558606",1,FALSE,"Pleasant St at Vincentes",c(239406.26734058, 870715.485549581),"BAT"
"18","2558946",2,FALSE,"N Main Street and Locust Street",c(238782.722396712, 873326.408961844),"BAT"
"19","2584761",0,FALSE,"Oak St Ext and Pearl St",c(235949.017775054, 872246.887938347),"BAT"
"20","2584762",0,FALSE,"Oak St Ext at 7-Eleven",c(236115.809593863, 872277.854071744),"BAT"
"21","2597285",0,FALSE,"Kingswood Village SB",c(243137.247639417, 860516.578680308),"BAT"
"22","2729862",2,FALSE,"Lisa Dr & Howard St",c(239952.433256561, 874496.591050087),"BAT"
"23","2729863",2,FALSE,"North Quincy St at St Nick Church",c(241413.718223611, 873889.16195698),"BAT"
"24","2729864",2,FALSE,"Hovendon Ave & Farnham St",c(240375.734335789, 873789.193207586),"BAT"
"25","2729865",2,FALSE,"Cary Hill Plaza",c(240454.79191984, 871792.816773342),"BAT"
"26","2734703",0,FALSE,"North Main St at Washburn Heights Housing",c(238861.197889052, 873242.271875288),"BAT"
"27","2734704",0,FALSE,"North Main St at Guardian Rehabilitation Center",c(239103.138395177, 872985.141276143),"BAT"
"28","2734705",0,FALSE,"North Main St. @ Field House Daycare",c(238611.921881134, 873618.885488623),"BAT"
"29","2734706",2,FALSE,"Main St at Hayward Ave",c(240460.463845505, 866729.169752439),"BAT"
"30","2735481",2,FALSE,"Westgate Dt at Reynolds Hwy",c(237379.642700281, 871164.704801233),"BAT"
"31","2735484",2,FALSE,"Pleasant St at Newbury St",c(239053.124380582, 870818.609877879),"BAT"
"32","2735485",1,FALSE,"Clifton Ave at Main St",c(240184.159920578, 867866.664666133),"BAT"
"33","2735486",2,FALSE,"Warren Ave and West Chestnut St",c(239791.268003908, 868226.080216536),"BAT"
"34","2735487",2,FALSE,"Warren Ave and Calmar St",c(239748.253213439, 868453.6186298),"BAT"
"35","2735488",2,FALSE,"Warren Ave and Tribou St",c(239687.41331035, 868785.791660637),"BAT"
"36","2735489",2,FALSE,"Warren Ave and Florence St",c(239634.828140816, 869166.114202192),"BAT"
"37","2735490",2,FALSE,"Warren Ave and Dover St",c(239592.533968416, 869479.986755872),"BAT"
"38","2735491",2,FALSE,"Warren Ave and West Park St",c(239554.29583116, 869753.958753153),"BAT"
"39","2735492",2,FALSE,"Main St and Church St",c(239735.581927024, 870462.750443405),"BAT"
"40","2738221",2,FALSE,"Main St and Brookside Ave",c(240293.904124239, 867540.394399197),"BAT"
"41","2738222",2,FALSE,"Main St and Watson St",c(240327.012733211, 867414.072148408),"BAT"
"42","2738223",2,FALSE,"Main St and Holmes St",c(240357.558289213, 867319.328108443),"BAT"
"43","2738224",2,FALSE,"Main St and Clifton Ave - CVS",c(240206.343363626, 867893.998621126),"BAT"
"44","2738225",2,FALSE,"Main St - Teen Challenge",c(240219.532986388, 867835.488347767),"BAT"
"45","2738226",2,FALSE,"Main St and Calmar St",c(240025.703175108, 868550.919444073),"BAT"
"46","2738227",2,FALSE,"Main St and Nilsson St",c(239975.568828957, 868738.26137194),"BAT"
"47","2738228",2,FALSE,"Main St and Maple Ave",c(239710.977734185, 870085.621193388),"BAT"
"48","2738280",2,FALSE,"Belmont St and New Arnone School",c(239377.256177204, 870028.231441495),"BAT"
"49","2740070",1,FALSE,"Centre St and Ames Rd",c(242790.084158664, 870905.525507772),"BAT"
"50","2740071",1,FALSE,"Centre St and Guild Rd",c(242640.801396374, 870876.907071455),"BAT"
"51","2740072",2,FALSE,"Crescent St and Otis St",c(240209.925748743, 870158.065304132),"BAT"
"52","2740073",2,FALSE,"Crescent St and Brockton Day Nursery",c(240300.639860309, 870112.63014962),"BAT"
"53","2740074",2,FALSE,"Centre St and Hill St",c(241414.661042363, 870605.580262351),"BAT"
"54","2740116",2,FALSE,"St Coleman's School",c(240866.972350535, 870096.16252609),"BAT"
"55","2740144",0,FALSE,"Torrey St and Brewster Rd",c(237219.756251105, 869285.832504823),"BAT"
"56","2740145",0,FALSE,"Easton Industrial Park",c(235349.091734281, 866782.703570232),"BAT"
"57","2740154",2,FALSE,"Jehovah's Witness Hall",c(240977.951325403, 871995.968808626),"BAT"
"58","2740249",0,FALSE,"Park St and Belmont Ave",c(233971.676050655, 874493.584091105),"BAT"
"59","2740250",0,FALSE,"Park St in front of Blue Hill Nursing Home",c(235475.810250464, 873305.424927126),"BAT"
"60","2740251",1,FALSE,"Belair St and Oak St",c(238116.821164146, 872374.7974101),"BAT"
"61","3880713",2,FALSE,"Oak St at DW Field Park",c(237891.072600763, 872439.751996391),"BAT"
"62","3880714",2,FALSE,"Oak St across DW Field Park",c(237874.214411228, 872424.758721269),"BAT"
"63","799180",3,FALSE,"BAT Center",c(240105.165141158, 870656.527358133),"BAT"
"64","799181",2,FALSE,"Commercial St and School St",c(240098.999658666, 870259.775734593),"BAT"
"65","799182",2,FALSE,"School St and Lincoln St",c(239868.820047005, 870387.746886983),"BAT"
"66","799183",0,FALSE,"Main St and Centre St",c(239736.521015926, 870512.433466939),"BAT"
"67","799184",0,FALSE,"Main St and Petronelli Way",c(239733.84279363, 870592.704378924),"BAT"
"68","799185",0,FALSE,"Main St and Court St",c(239732.416777606, 870665.994588404),"BAT"
"69","799186",2,FALSE,"North Main St and Linden St",c(239764.62166682, 870908.10500968),"BAT"
"70","799187",2,FALSE,"North Main St and Rosseter St",c(239774.100552595, 871149.298006097),"BAT"
"71","799188",2,FALSE,"North Main St and Elliot St",c(239775.915681933, 871267.601055701),"BAT"
"72","799189",2,FALSE,"North Main St and Lebanon St",c(239775.163501209, 871446.134052182),"BAT"
"73","799190",2,FALSE,"North Main St and East Ashland St",c(239769.620195639, 871562.575719653),"BAT"
"74","799191",2,FALSE,"North Main St and Snow Ave",c(239771.569866674, 871774.403175436),"BAT"
"75","799193",0,FALSE,"North Main St at Edith Stein Church",c(239721.948405073, 872153.993901747),"BAT"
"76","799194",2,FALSE,"North Main St and Vine St",c(239624.825712464, 872346.937303438),"BAT"
"77","799195",2,FALSE,"North Main St and Ames St",c(239597.880681319, 872402.100488029),"BAT"
"78","799196",2,FALSE,"North Main St and Emerson Ave",c(239433.805624206, 872661.759320001),"BAT"
"79","799197",2,FALSE,"North Main St and Field St",c(239334.693817109, 872769.058158664),"BAT"
"80","799198",2,FALSE,"North Main St and Howard St",c(239237.874397012, 872866.263470885),"BAT"
"81","799199",2,FALSE,"North Main St and Snell St",c(239106.228989336, 872994.599635235),"BAT"
"82","799200",2,FALSE,"North Main St and Albion St",c(238977.326281507, 873121.398378883),"BAT"
"83","799201",2,FALSE,"North Main St and Waldo St",c(238713.890762622, 873423.844269401),"BAT"
"84","799202",2,FALSE,"North Main St and Frankton St",c(238675.078510669, 873503.493077501),"BAT"
"85","799203",2,FALSE,"North Main St and Augustine St",c(238600.45454073, 873674.137243152),"BAT"
"86","799204",2,FALSE,"North Main St and Wilder St",c(238560.754776891, 873765.333462708),"BAT"
"87","799205",0,FALSE,"East Main St and Fletcher Rd",c(238529.183819992, 873973.423477),"BAT"
"88","799206",0,FALSE,"East Main St and Connolly Rd",c(238563.170722521, 874170.542309085),"BAT"
"89","799207",0,FALSE,"East Main St and Lambert Dr",c(238593.729419876, 874374.195941061),"BAT"
"90","799208",0,FALSE,"East Main St and Memorial Dr",c(238516.556164134, 874786.52304904),"BAT"
"91","799209",0,FALSE,"Walmart",c(238790.935635365, 874664.650895889),"BAT"
"92","799210",2,FALSE,"West Main St and South St",c(238072.45744497, 874474.772285749),"BAT"
"93","799211",0,FALSE,"West Main St and Glendower St",c(238110.358240407, 874393.226950866),"BAT"
"94","799212",2,FALSE,"Maguire Road",c(238440.927993832, 873930.734080107),"BAT"
"95","799213",2,FALSE,"West Main St and East Main St",c(238498.172208425, 873852.073124985),"BAT"
"96","799214",2,FALSE,"North Main St and Burkeside Ave",c(238537.311554943, 873787.531088293),"BAT"
"97","799215",2,FALSE,"North Main St and Hillcrest Ave",c(238576.769571041, 873703.108887297),"BAT"
"98","799216",2,FALSE,"North Main St and Woodland Ave",c(238644.682763911, 873541.535713897),"BAT"
"99","799217",2,FALSE,"North Main St and Manners Ave",c(238719.854364645, 873392.110037503),"BAT"
"100","799218",2,FALSE,"North Main St and Willow St",c(238821.865844239, 873265.602850644),"BAT"
"101","799219",2,FALSE,"North Main St and May Ave",c(238949.286678047, 873136.571624636),"BAT"
"102","799220",2,FALSE,"North Main St and Searles Ave",c(239059.069138832, 873027.104986208),"BAT"
"103","799221",2,FALSE,"North Main St and Martland Ave",c(239131.753427401, 872955.865526838),"BAT"
"104","799222",2,FALSE,"North Main St and Oak St",c(239242.218025496, 872843.739759073),"BAT"
"105","799223",2,FALSE,"North Main St and Herrod Ave",c(239386.520267625, 872701.259401631),"BAT"
"106","799224",2,FALSE,"North Main St and Rutland St",c(239460.311138812, 872596.041086407),"BAT"
"107","799225",2,FALSE,"North Main St and Vine St",c(239605.580083132, 872356.714757311),"BAT"
"108","799226",2,FALSE,"North Main St and Upland Road",c(239646.814983331, 872261.090167321),"BAT"
"109","799227",2,FALSE,"North Main St and Landsdowne St",c(239688.123084938, 872167.354480154),"BAT"
"110","799228",2,FALSE,"North Main St and Division St",c(239748.788832668, 871882.793276746),"BAT"
"111","799229",2,FALSE,"North Main St and Ford St",c(239758.549058889, 871677.474014975),"BAT"
"112","799230",2,FALSE,"North Main St and West Ashland St",c(239758.865508379, 871591.949489367),"BAT"
"113","799231",2,FALSE,"North Main St and Huntington St",c(239758.66494561, 871510.087472616),"BAT"
"114","799232",2,FALSE,"North Main St and Prospect St",c(239760.33560808, 871331.047052719),"BAT"
"115","799233",2,FALSE,"North Main St and Falmouth Ave",c(239760.799626058, 871204.64850677),"BAT"
"116","799234",2,FALSE,"North Main St and Wyman St",c(239760.159970506, 871083.242049719),"BAT"
"117","799235",2,FALSE,"North Main St and Haverhill St",c(239755.859125888, 870936.157114457),"BAT"
"118","799236",2,FALSE,"Linden St and North Montello St",c(239925.125540706, 870864.80419646),"BAT"
"119","799237",2,FALSE,"North Montello St and Court St",c(239951.894162781, 870696.124698322),"BAT"
"120","799238",2,FALSE,"North Main St and Battles St",c(239730.362470667, 871981.877835708),"BAT"
"121","799239",2,FALSE,"North Main St and Farrington St",c(239760.252555239, 871448.561917515),"BAT"
"122","799240",2,FALSE,"Montello St and School St",c(239937.253204503, 870341.596547122),"BAT"
"123","799241",2,FALSE,"Crescent St and VFW Pkwy",c(239821.892600586, 870215.776845392),"BAT"
"124","799242",2,FALSE,"Maple Ave and Main St",c(239699.968247529, 870061.587175604),"BAT"
"125","799243",2,FALSE,"Main St and Barlett St",c(239716.716413356, 869923.284580744),"BAT"
"126","799244",2,FALSE,"Main St and Park St",c(239734.813736607, 869795.319417795),"BAT"
"127","799245",2,FALSE,"Main St and Dover St",c(239770.647847683, 869530.279277154),"BAT"
"128","799246",2,FALSE,"Main St and Williams Pl",c(239792.230054606, 869401.012182907),"BAT"
"129","799247",2,FALSE,"Main St and Forest Ave",c(239806.023382731, 869317.663167859),"BAT"
"130","799248",2,FALSE,"Main St and David St",c(239861.362362446, 869072.726736803),"BAT"
"131","799249",2,FALSE,"Main St and Sheppard St",c(239896.419142101, 868961.296656869),"BAT"
"132","799250",2,FALSE,"Main St and Tribou St",c(239912.711303129, 868904.741649707),"BAT"
"133","799251",2,FALSE,"Main St and Nilsson St",c(239960.280906455, 868732.29265163),"BAT"
"134","799252",2,FALSE,"Main St and Calmar St",c(240011.563500213, 868547.647042203),"BAT"
"135","799253",2,FALSE,"Main St and West Chestnut St",c(240070.197874745, 868336.830400607),"BAT"
"136","799254",2,FALSE,"Main St and South St",c(240097.011653799, 868235.240063356),"BAT"
"137","799255",2,FALSE,"Main St and Lyon St",c(240153.887068599, 868028.968156355),"BAT"
"138","799256",2,FALSE,"Main St and Clifton Ave - CVS",c(240191.109361918, 867887.784472118),"BAT"
"139","799257",2,FALSE,"Main St and Glen Ave",c(240242.638434812, 867691.03514709),"BAT"
"140","799258",2,FALSE,"Campello Hi Rise",c(240328.260594632, 867621.862123762),"BAT"
"141","799259",2,FALSE,"Main St and Brookside Ave",c(240281.044809716, 867531.531742303),"BAT"
"142","799260",2,FALSE,"Main St and Watson St",c(240316.610654492, 867405.88948734),"BAT"
"143","799261",2,FALSE,"Main St and Holmes St",c(240341.254735621, 867323.059028698),"BAT"
"144","799262",2,FALSE,"Main St and Thayer Ave",c(240386.963774962, 867175.5938119),"BAT"
"145","799263",2,FALSE,"Main St and Sylvia Ave",c(240418.917176804, 867059.816899839),"BAT"
"146","799265",2,FALSE,"Kmart Plaza",c(240407.307522596, 866221.928167912),"BAT"
"147","799267",2,FALSE,"Main St at Auto Dealers",c(240581.557881722, 866173.977072186),"BAT"
"148","799268",2,FALSE,"Main St at Wendys",c(240517.561071428, 866473.697168845),"BAT"
"149","799270",2,FALSE,"Main St and Sargeants Way",c(240424.492254857, 867098.168851254),"BAT"
"150","799271",2,FALSE,"Main St and Meadow Ln",c(240390.359881567, 867204.158890615),"BAT"
"151","799272",2,FALSE,"Main St and Garfield St",c(240168.793928501, 868027.497941751),"BAT"
"152","799273",2,FALSE,"Main St and Perkins Ave",c(240108.965151033, 868243.638419734),"BAT"
"153","799274",2,FALSE,"Main St and East Chestnut St",c(240082.602883963, 868338.566915019),"BAT"
"154","799275",2,FALSE,"Main St and Pinkham St",c(240047.558040609, 868461.436576929),"BAT"
"155","799276",2,FALSE,"Main St and Grand St",c(239946.628057596, 868834.180159623),"BAT"
"156","799277",2,FALSE,"Main St and Temple St",c(239921.674433938, 868929.561562148),"BAT"
"157","799278",2,FALSE,"Main St and Grove St",c(239897.768007529, 869000.84618711),"BAT"
"158","799279",2,FALSE,"Main St and Hancock St",c(239865.92191595, 869100.631755159),"BAT"
"159","799280",2,FALSE,"Main St and Main St Pl",c(239848.66823202, 869166.400492569),"BAT"
"160","799281",2,FALSE,"Packard St",c(239830.080208467, 869263.37320302),"BAT"
"161","799282",2,FALSE,"Main St and Union St",c(239809.040966196, 869384.212801245),"BAT"
"162","799283",2,FALSE,"Main St and Exchange St",c(239777.089507549, 869576.6329503),"BAT"
"163","799284",2,FALSE,"Main St and Lawrence St",c(239754.129345548, 869745.001106771),"BAT"
"164","799285",2,FALSE,"Main St and Allen St",c(239734.698456092, 869889.286420185),"BAT"
"165","799286",2,FALSE,"Main St and White Ave",c(239721.984446236, 870005.65686194),"BAT"
"166","799287",2,FALSE,"Main St and West Elm St",c(239718.269218444, 870323.711165208),"BAT"
"167","799288",2,FALSE,"Centre Street and Montello Street",c(239942.069406001, 870502.35777629),"BAT"
"168","799290",2,FALSE,"Belmont St and Elm Ave",c(238825.031579496, 869878.559008471),"BAT"
"169","799291",2,FALSE,"Belmont St and Belmont Ave",c(238710.817418808, 869852.495972869),"BAT"
"170","799292",2,FALSE,"Belmont St and Ash St",c(238532.688865126, 869801.982768675),"BAT"
"171","799293",2,FALSE,"Belmont St and Moraine St",c(238381.80616224, 869716.63427609),"BAT"
"172","799294",2,FALSE,"Belmont St and Thurber Ave",c(238319.088468617, 869684.982088399),"BAT"
"173","799295",2,FALSE,"Belmont St and Kenelworth Ave",c(238256.466928662, 869650.754096334),"BAT"
"174","799296",2,FALSE,"Torrey St and Belmont Pl",c(238131.89409957, 869580.437392769),"BAT"
"175","799297",2,FALSE,"Torrey St and West St",c(237854.472558589, 869449.100111256),"BAT"
"176","799298",2,FALSE,"West St and Belmont St",c(237839.087100469, 869339.833198658),"BAT"
"177","799300",2,FALSE,"Shaws West Plaza",c(237621.166241831, 869174.725136907),"BAT"
"178","799301",2,FALSE,"Brockton High School",c(237503.811479067, 868947.001987281),"BAT"
"179","799303",2,FALSE,"Belmont St and Torrey Ave",c(237277.821399589, 868750.050321714),"BAT"
"180","799304",2,FALSE,"Belmont St and Lorraine Ave",c(237179.614886775, 868681.44493901),"BAT"
"181","799305",2,FALSE,"Belmont St and Edinboro Ave",c(236911.435921355, 868466.000910333),"BAT"
"182","799306",2,FALSE,"Veterans Hospital",c(236903.968115317, 868200.498761492),"BAT"
"183","799307",2,FALSE,"Legion Parkway and Main St",c(239712.217546504, 870531.605678282),"BAT"
"184","799308",2,FALSE,"Legion Parkway and Warren Ave",c(239481.326566377, 870510.317051838),"BAT"
"185","799309",2,FALSE,"Warren Ave and West Elm St",c(239467.269825862, 870286.75969478),"BAT"
"186","799310",2,FALSE,"Belmont St and Newbury St",c(239279.255388141, 870008.361791245),"BAT"
"187","799311",2,FALSE,"Belmont St and Wall St",c(239093.189183451, 869943.239674764),"BAT"
"188","799312",2,FALSE,"Belmont St and Minot Ave",c(238933.867722716, 869904.372082598),"BAT"
"189","799313",2,FALSE,"DAngelos CVS",c(237389.153068092, 868840.274666774),"BAT"
"190","799314",2,FALSE,"Belmont St at VA Entrance",c(236836.897278888, 868380.641141989),"BAT"
"191","799315",2,FALSE,"Belmont St and Edinboro Ave",c(236918.864439531, 868454.043932301),"BAT"
"192","799316",2,FALSE,"Belmont St and Lorraine Ave",c(237174.84616047, 868659.760687103),"BAT"
"193","799317",2,FALSE,"Belmont St at Dunkin Donuts",c(237280.980244653, 868731.74003914),"BAT"
"194","799318",2,FALSE,"DAngelos CVS Plaza",c(237362.961039849, 868800.927378406),"BAT"
"195","799319",2,FALSE,"Brockton High School",c(237561.245032044, 868958.1477008),"BAT"
"196","799320",2,FALSE,"Torrey St at Shaws Plaza",c(237673.871347526, 869393.708236888),"BAT"
"197","799321",2,FALSE,"Torrey St and West St",c(237820.903376299, 869428.371713436),"BAT"
"198","799322",2,FALSE,"Belmont St at Bat Shelter",c(238131.301716827, 869567.549759323),"BAT"
"199","799323",2,FALSE,"Belmont St at Fairgrounds",c(238297.715853984, 869658.752887441),"BAT"
"200","799324",2,FALSE,"Belmont St and Thurber Ave",c(238338.224879191, 869681.076283328),"BAT"
"201","799325",2,FALSE,"Belmont St and Ash St",c(238565.311403123, 869798.384473134),"BAT"
"202","799326",2,FALSE,"Belmont St and Manomet St",c(238731.057265527, 869843.499044593),"BAT"
"203","799327",2,FALSE,"Belmont St and Grafton St",c(238830.637828008, 869867.260425053),"BAT"
"204","799328",2,FALSE,"Belmont St and Minot Ave",c(238932.785269657, 869890.593082723),"BAT"
"205","799329",2,FALSE,"Belmont St and Newbury St",c(239263.641014878, 869989.059303636),"BAT"
"206","799331",2,FALSE,"Belmont St and Cottage St",c(239548.647574854, 870087.395096715),"BAT"
"207","799332",2,FALSE,"Crescent St and Maple Ave",c(239835.700346097, 870202.970308841),"BAT"
"208","799333",2,FALSE,"Commercial St and School St",c(240109.458468803, 870249.784010987),"BAT"
"209","799334",2,FALSE,"Commercial St at Centre St",c(240094.788674035, 870491.227899842),"BAT"
"210","799335",2,FALSE,"Pleasant St at Main St",c(239705.822368863, 870682.962163108),"BAT"
"211","799336",2,FALSE,"Pleasant St at Hereford St",c(239516.760340519, 870703.733948892),"BAT"
"212","799337",2,FALSE,"Pleasant St and Spring St",c(239351.831958633, 870751.130683243),"BAT"
"213","799338",2,FALSE,"Pleasant St and Oakland Ave",c(239079.467196052, 870822.305622393),"BAT"
"214","799339",2,FALSE,"Pleasant St and Colonial St",c(238999.015626194, 870846.947068603),"BAT"
"215","799340",2,FALSE,"Pleasant St and Weston St",c(238851.84163146, 870885.582129864),"BAT"
"216","799341",2,FALSE,"Pleasant St at Ellis St",c(238728.631982359, 870918.671037487),"BAT"
"217","799342",2,FALSE,"Pleasant St at Augusta Ave",c(238606.159584006, 870953.321145723),"BAT"
"218","799343",2,FALSE,"Pleasant St at North Ash St",c(238437.540099444, 870999.939884388),"BAT"
"219","799344",2,FALSE,"Pleasant St and Belair St",c(238286.24806391, 871040.325476252),"BAT"
"220","799345",2,FALSE,"Plesant St and Fields Ave",c(238167.745666832, 871076.00437223),"BAT"
"221","799346",2,FALSE,"Pleasant St and Elmwood Ave",c(237962.764114321, 871116.217766823),"BAT"
"222","799347",2,FALSE,"Pennsylvania Ave",c(237691.462223511, 871089.105607961),"BAT"
"223","799348",2,FALSE,"Pleasant St and West St",c(237501.731737084, 871046.775649875),"BAT"
"224","799349",2,FALSE,"Westgate Lanes",c(237348.648331862, 871208.019056173),"BAT"
"225","799351",2,FALSE,"AC Moore",c(237108.658422498, 871406.829114587),"BAT"
"226","799352",2,FALSE,"Sears and Macys",c(237174.690453553, 871844.948748149),"BAT"
"227","799353",2,FALSE,"Westgate Mall Entrance by Sears",c(237245.874224466, 871811.82504787),"BAT"
"228","799354",2,FALSE,"Campanelli Dr At Self Storage",c(237030.22998531, 872056.159642911),"BAT"
"229","799355",2,FALSE,"Campanelli Dr - Ocean State Job Lot",c(237021.673683542, 872209.556832564),"BAT"
"230","799356",2,FALSE,"Oak St and Chatham West Dr",c(236963.732743341, 872464.559528791),"BAT"
"231","799358",2,FALSE,"Oak St at Pine Estates",c(236502.539966155, 872393.735923004),"BAT"
"232","799359",2,FALSE,"Oak St and Reservoir St",c(236209.556434064, 872317.461129892),"BAT"
"233","799360",2,FALSE,"Good Samaritan Hospital",c(236188.948720888, 872040.242912492),"BAT"
"234","799361",2,FALSE,"Oak St Ext and Reservoir St",c(236128.410433498, 872295.955702688),"BAT"
"235","799362",2,FALSE,"Oak St Ext and Pearl St",c(235945.119515447, 872265.967807591),"BAT"
"236","799363",2,FALSE,"North Pearl St and Reynolds Hwy",c(235895.099690059, 872060.623215128),"BAT"
"237","799364",2,FALSE,"First Entrance on Pearl St",c(235963.825148466, 871722.978511162),"BAT"
"238","799365",2,FALSE,"Entrance - Melrose on Pearl St",c(235999.395648773, 871528.69362166),"BAT"
"239","799366",2,FALSE,"Last Entrance on Pearl St",c(236021.605930347, 871358.954462425),"BAT"
"240","799367",2,FALSE,"Pearl St at Braemoor Nursing Home",c(236037.633472918, 871168.879727642),"BAT"
"241","799368",2,FALSE,"Pearl St and Pleasant St",c(236094.773737889, 871044.881371039),"BAT"
"242","799369",2,FALSE,"Pleasant St and Hancock Ave",c(236142.820512379, 871032.909292274),"BAT"
"243","799370",2,FALSE,"Pleasant St and Irving Ave",c(236235.558482121, 871001.951299968),"BAT"
"244","799371",2,FALSE,"Pleasant St and Rockland St",c(236404.472020051, 870943.507828962),"BAT"
"245","799372",2,FALSE,"810 Pleasant St and Gerrys Stand",c(236766.992660057, 870884.443906881),"BAT"
"246","799373",2,FALSE,"Pleasant St at West Acres Nursing Home",c(237025.092579824, 870922.633986961),"BAT"
"247","799374",2,FALSE,"Pleasant St and Troy St",c(237240.342993221, 870958.97671554),"BAT"
"248","799375",2,FALSE,"Pleasant St and Fern St",c(237385.579625464, 870983.18103066),"BAT"
"249","799376",2,FALSE,"Pleasant St at West St",c(237588.582787764, 871037.0454658),"BAT"
"250","799377",2,FALSE,"Pleasant St at Lennox St",c(237804.567819125, 871102.817245297),"BAT"
"251","799378",2,FALSE,"Pleasant St at Wheeler Ave",c(238042.942483032, 871098.988971037),"BAT"
"252","799379",2,FALSE,"Pleasant St and Morraine St",c(238277.18917695, 871032.612301496),"BAT"
"253","799380",2,FALSE,"Pleasant St at Ash St",c(238428.07915648, 870990.11394024),"BAT"
"254","799381",2,FALSE,"Pleasant St and Belmont Ave",c(238627.194248887, 870934.553855382),"BAT"
"255","799382",2,FALSE,"Pleasant St and Fenway Cir",c(238776.594387322, 870892.943357187),"BAT"
"256","799383",2,FALSE,"Pleasant St and Simmons Ave",c(238846.859102884, 870873.892041051),"BAT"
"257","799384",2,FALSE,"246 Pleasant St",c(238981.761940931, 870836.093638348),"BAT"
"258","799385",2,FALSE,"Pleasant St at Glenwood St",c(239189.082074072, 870779.595042693),"BAT"
"259","799386",2,FALSE,"Pleasant St and Warren Ave",c(239431.712012257, 870653.101618648),"BAT"
"260","799387",2,FALSE,"Warren Ave and Highland St",c(239453.700417363, 870523.491305121),"BAT"
"261","799388",2,FALSE,"Legion Parkway and Paddy Ln",c(239510.121684235, 870480.488509144),"BAT"
"262","799389",2,FALSE,"Legion Parkway and Main St",c(239701.524535712, 870505.665513624),"BAT"
"263","799390",2,FALSE,"Centre St and Montello St",c(239911.137249503, 870514.73402242),"BAT"
"264","799391",2,FALSE,"Crescent St and Otis St",c(240211.341289972, 870133.236386615),"BAT"
"265","799392",2,FALSE,"Crescent St and Summer St",c(240386.909424736, 870092.697600391),"BAT"
"266","799394",2,FALSE,"Lyman St and Wendell Ave",c(240914.233319611, 870323.101385285),"BAT"
"267","799395",2,FALSE,"Lyman St and Centre St",c(240959.470620978, 870464.872942705),"BAT"
"268","799396",2,FALSE,"Centre St and Kingman St",c(241131.460467262, 870531.293223063),"BAT"
"269","799397",2,FALSE,"East Junior High School",c(241320.394639925, 870578.360947868),"BAT"
"270","799398",2,FALSE,"Centre St and Gladstone St",c(241610.930154428, 870659.28345249),"BAT"
"271","799399",2,FALSE,"Centre St at Plaza",c(241799.573369541, 870589.644675321),"BAT"
"272","799400",2,FALSE,"Centre St and Galen St",c(241827.237132545, 870710.434051389),"BAT"
"273","799401",2,FALSE,"Centre St and Brockton Ave",c(241961.105183534, 870738.663845531),"BAT"
"274","799402",2,FALSE,"Brockton Hospital",c(242048.119281497, 870917.842894854),"BAT"
"275","799403",2,FALSE,"Centre St and Sterling Rd",c(242168.386109534, 870776.442484074),"BAT"
"276","799404",2,FALSE,"Libby St and Centre St",c(242234.597814144, 870830.808486754),"BAT"
"277","799405",2,FALSE,"Libby St and Quincy Ave",c(242203.201710805, 871042.115668535),"BAT"
"278","799407",2,FALSE,"Quincy St at Doctors Building",c(242356.459347761, 870981.388240712),"BAT"
"279","799408",2,FALSE,"Centre St and Guild Rd",c(242649.131838476, 870865.524399725),"BAT"
"280","799409",2,FALSE,"Centre St at Harold St-Ames Rd",c(242797.893795072, 870892.527259813),"BAT"
"281","799410",2,FALSE,"Centre St and Edward St",c(242993.634206104, 870935.480663297),"BAT"
"282","799411",2,FALSE,"Walmart",c(243977.432700974, 871850.227431767),"BAT"
"283","799412",1,FALSE,"Brockton Ave at Line",c(243342.567640909, 871131.549288968),"BAT"
"284","799413",1,FALSE,"Centre Street and Edward Street",c(243071.22377179, 870967.99969142),"BAT"
"285","799416",1,FALSE,"Centre Street and Short Street",c(243168.74903692, 871011.395576264),"BAT"
"286","799417",1,FALSE,"Centre St and Bates Rd",c(242895.1637425, 870924.329450191),"BAT"
"287","799418",1,FALSE,"Centre St and Quincy St",c(242489.072827763, 870845.787490537),"BAT"
"288","799420",1,FALSE,"Centre St and Adams St",c(241962.766005463, 870751.558212389),"BAT"
"289","799421",1,FALSE,"Centre St and Prince St",c(241874.032090083, 870734.360209616),"BAT"
"290","799422",1,FALSE,"Centre St and Howland St",c(241706.110652367, 870696.05516649),"BAT"
"291","799423",1,FALSE,"Centre St and Sheridan St",c(241579.891758335, 870661.210896816),"BAT"
"292","799424",1,FALSE,"East Junior High School",c(241323.634996178, 870593.470115039),"BAT"
"293","799426",1,FALSE,"Centre St and Lyman St",c(240994.893015635, 870514.377870552),"BAT"
"294","799427",1,FALSE,"Lyman St and Wendell Ave",c(240936.719775121, 870354.99867575),"BAT"
"295","799428",1,FALSE,"Lyman and Crescent Ave",c(240708.582778824, 870125.2438319),"BAT"
"296","799429",2,FALSE,"Crescent Ave and Plymouth St",c(240375.528721132, 870114.958150267),"BAT"
"297","799436",1,FALSE,"Crescent St and Sprague Ave",c(240786.974739216, 870079.781297654),"BAT"
"298","799437",1,FALSE,"Crescent St and Crescent Ave",c(240960.745560298, 870087.657086606),"BAT"
"299","799438",1,FALSE,"Crescent St and Taylor Ave",c(241192.824098353, 870096.91114105),"BAT"
"300","799439",1,FALSE,"Crescent St and Perry Ave",c(241329.491270827, 870101.708773747),"BAT"
"301","799440",1,FALSE,"Crescent St and Jacob St",c(241466.401279414, 870107.399065251),"BAT"
"302","799441",1,FALSE,"Crescent St and Washington Ave",c(241632.078540627, 870117.815647085),"BAT"
"303","799442",1,FALSE,"Crescent St and Electric Ave",c(241825.096244083, 870136.284285275),"BAT"
"304","799443",1,FALSE,"Crescent Plaza",c(242017.058441416, 870179.649802515),"BAT"
"305","799444",0,FALSE,"Caffrey Towers High Rise",c(242191.831845751, 870213.914705652),"BAT"
"306","799445",1,FALSE,"Supreme Donut",c(242295.659477982, 870234.167281609),"BAT"
"307","799446",1,FALSE,"Massasoit Plaza",c(242397.414079928, 870251.327736728),"BAT"
"308","799447",1,FALSE,"Massasoit Road and Thatcher St",c(242108.787694999, 869603.953027724),"BAT"
"309","799448",2,FALSE,"Massasoit College Student Union",c(242177.855548766, 869519.194029149),"BAT"
"310","799449",2,FALSE,"Crescent St and Christos",c(242454.487007746, 870274.179471274),"BAT"
"311","799450",2,FALSE,"Crescent St and Eastway Plaza",c(242234.45269542, 870234.199698378),"BAT"
"312","799451",2,FALSE,"Crescent St and Dunham St",c(241847.833597491, 870153.191108857),"BAT"
"313","799452",2,FALSE,"Crescent St and Gladstone St",c(241690.591814049, 870129.712655664),"BAT"
"314","799453",2,FALSE,"Crescent St and Hill St",c(241494.286572105, 870121.447092135),"BAT"
"315","799454",2,FALSE,"Crescent St and Draper St",c(241333.801813129, 870114.507418933),"BAT"
"316","799455",2,FALSE,"Crescent St and Henry St",c(241190.518744899, 870109.115720299),"BAT"
"317","799456",2,FALSE,"Crescent St and Wendell Ave",c(240988.364461823, 870101.589795751),"BAT"
"318","799457",2,FALSE,"Crescent St and Lyman St",c(240762.671470401, 870089.970676453),"BAT"
"319","799464",1,FALSE,"Warren Ave and Belmont St",c(239504.184667407, 870018.614111858),"BAT"
"320","799465",1,FALSE,"Warren Ave and West Park St",c(239549.397453286, 869717.304509066),"BAT"
"321","799466",1,FALSE,"Warren Ave and Harvard St",c(239562.664124343, 869609.193920752),"BAT"
"322","799467",1,FALSE,"Warren Ave and Dover St",c(239575.023896751, 869530.068289306),"BAT"
"323","799468",1,FALSE,"Warren Ave and Foster St",c(239600.405386731, 869327.724924299),"BAT"
"324","799469",1,FALSE,"Warren Ave and Florence St",c(239623.297828206, 869156.24594967),"BAT"
"325","799470",1,FALSE,"Warren Ave and Myrtle St",c(239639.086233983, 869026.823754649),"BAT"
"326","799471",1,FALSE,"Warren Ave and Menlo St",c(239661.327570542, 868868.44788221),"BAT"
"327","799472",1,FALSE,"Warren Ave and Tribou St",c(239681.582807605, 868754.378954239),"BAT"
"328","799473",1,FALSE,"Warren Ave and Hillberg Ave",c(239706.719034889, 868611.347573989),"BAT"
"329","799474",1,FALSE,"Warren Ave and Calmar St",c(239736.531301649, 868446.461303316),"BAT"
"330","799475",1,FALSE,"Warren Ave and Tremont St",c(239754.392709397, 868346.374311469),"BAT"
"331","799476",1,FALSE,"Warren Ave and West Chestnut St",c(239773.992029961, 868246.408238178),"BAT"
"332","799477",1,FALSE,"Warren Ave and Leach Ave",c(239850.869855418, 868014.033519687),"BAT"
"333","799478",1,FALSE,"Warren Ave and Clifton St",c(239930.068495835, 867825.87970148),"BAT"
"334","799479",1,FALSE,"Plain St and Montello St Ext",c(240294.461086269, 867892.927583012),"BAT"
"335","799480",2,FALSE,"Plain St and Campello Hi Rise",c(240423.353236165, 867796.493983089),"BAT"
"336","799481",1,FALSE,"Otto St and Summer St",c(240829.260010816, 867675.632027403),"BAT"
"337","799482",1,FALSE,"Summer St and South Leyden St",c(240847.624738541, 867763.374606623),"BAT"
"338","799483",1,FALSE,"Summer St at Factory",c(241011.548105141, 868004.471858946),"BAT"
"339","799484",2,FALSE,"Summer St and Perkins Ave",c(241070.91040713, 868181.970314781),"BAT"
"340","799485",1,FALSE,"Summer St and Baker St",c(241332.373444077, 868351.660521414),"BAT"
"341","799486",1,FALSE,"Summer St and Carl Ave",c(241373.856205703, 868359.572410015),"BAT"
"342","799487",1,FALSE,"Carl Ave and Bristol Ave",c(241426.805412308, 868253.581389759),"BAT"
"343","799488",1,FALSE,"Carl Ave and Litch Field",c(241456.729752353, 868176.23258738),"BAT"
"344","799489",1,FALSE,"Carl Ave and Atherton St",c(241506.084677878, 868058.447860054),"BAT"
"345","799490",1,FALSE,"Carl Ave and Southfield Dr",c(241609.290872335, 867765.144425414),"BAT"
"346","799492",1,FALSE,"Carl Ave and Plain St",c(241596.40801167, 867136.259962625),"BAT"
"347","799494",1,FALSE,"Plain St and Cushing Rd",c(241904.181894249, 866974.508082866),"BAT"
"348","799495",1,FALSE,"East St and Plain St",c(242102.170966804, 866909.375488202),"BAT"
"349","799498",1,FALSE,"East St and Southfield Dr",c(242133.437709127, 867884.558694118),"BAT"
"350","799499",1,FALSE,"East St and Hopkins Rd",c(242118.860896563, 868094.177232448),"BAT"
"351","799500",1,FALSE,"East St and Buckland Dr",c(242067.700754154, 868304.022041313),"BAT"
"352","799501",2,FALSE,"Edson St and East St",c(241824.607431663, 868640.68344108),"BAT"
"353","799502",2,FALSE,"Edson St and Wallace St",c(241495.188637624, 868447.694026447),"BAT"
"354","799503",2,FALSE,"Summer St and Snell Dr",c(241215.289461656, 868289.885928093),"BAT"
"355","799504",2,FALSE,"Summer St and Coral St",c(241000.241643016, 868005.066855074),"BAT"
"356","799505",2,FALSE,"Summer St and South Leyden St",c(240835.215442137, 867759.267020213),"BAT"
"357","799506",2,FALSE,"Otto St and Auburn St",c(240783.66800669, 867644.157087873),"BAT"
"358","799507",2,FALSE,"Campello MBTA Station",c(240432.841009937, 867808.526019575),"BAT"
"359","799508",2,FALSE,"Keith Ave and Main St",c(240124.925937225, 867954.718028652),"BAT"
"360","799509",2,FALSE,"Keith Ave and Warren Ave",c(239907.900902275, 867896.396545066),"BAT"
"361","799510",2,FALSE,"Warren Ave and Rutland Sq",c(239878.029468529, 867968.091740117),"BAT"
"362","799511",2,FALSE,"Warren St and Wilkins Pl",c(239861.210197944, 868020.196082643),"BAT"
"363","799512",2,FALSE,"Warren and Nilsson St",c(239707.317263539, 868675.201045257),"BAT"
"364","799513",2,FALSE,"Warren Ave and Sheppard St",c(239674.667200574, 868867.216664752),"BAT"
"365","799514",2,FALSE,"Warren Ave and David St",c(239656.635503475, 869019.85142032),"BAT"
"366","799515",2,FALSE,"Warren Ave and Central Sq",c(239614.883365622, 869321.941371019),"BAT"
"367","799516",2,FALSE,"Warren Ave and Winthrop St",c(239567.895677395, 869664.981808273),"BAT"
"368","799517",2,FALSE,"Warren Ave and Belmont St",c(239506.98680433, 870035.401801724),"BAT"
"369","799518",2,FALSE,"Main St and Crescent St",c(239708.973869392, 870196.369280532),"BAT"
"370","799519",0,FALSE,"West Elm St and Goddard Rd",c(239353.728499362, 870290.013201162),"BAT"
"371","799520",0,FALSE,"West Elm St and Newbury St",c(239208.036470882, 870271.874922572),"BAT"
"372","799521",0,FALSE,"West Elm St and North Arlington St",c(239064.115076794, 870247.64044861),"BAT"
"373","799522",0,FALSE,"West Elm St and Carleton-Brett St",c(238915.540839852, 870226.715443647),"BAT"
"374","799523",0,FALSE,"West Elm St and Brett St",c(238929.958599347, 870223.018482034),"BAT"
"375","799524",0,FALSE,"West Elm St and Belmont Ave",c(238623.710201399, 870184.440073951),"BAT"
"376","799525",0,FALSE,"West Elm St and Ash St",c(238524.157423735, 870167.336849721),"BAT"
"377","799526",0,FALSE,"West Elm St and Auna Dr",c(238143.674907002, 870095.434255474),"BAT"
"378","799527",0,FALSE,"West Elm St and West St",c(237778.052634059, 870026.803532887),"BAT"
"379","799528",0,FALSE,"West St at West Jr High School",c(237720.675624922, 869941.990802156),"BAT"
"380","799529",0,FALSE,"West St at Plaza",c(237774.264711011, 869623.054482493),"BAT"
"381","799530",0,FALSE,"Torrey St at Plaza",c(237821.411663817, 869473.812224194),"BAT"
"382","799531",0,FALSE,"Torrey St at Bethel Medical",c(237493.578419778, 869357.649274766),"BAT"
"383","799532",0,FALSE,"Torrey St and Brewster Rd",c(237213.150372122, 869290.410253325),"BAT"
"384","799533",0,FALSE,"Torrey St and Braemore Rd",c(236948.663892816, 869227.930884123),"BAT"
"385","799534",0,FALSE,"Torrey St and Pondview Cir",c(236755.548378942, 869184.469951315),"BAT"
"386","799535",0,FALSE,"Torrey St and Rockland St",c(236401.739426113, 869099.021826096),"BAT"
"387","799536",0,FALSE,"Torrey St and Pearl St at Synagogue",c(236070.640887291, 869032.34470256),"BAT"
"388","799537",0,FALSE,"Pearl St and Westfield Dr",c(235995.555689659, 868746.394188444),"BAT"
"389","799538",0,FALSE,"Pearl St and Almon Ave",c(235987.535802091, 868629.838346851),"BAT"
"390","799539",0,FALSE,"Pearl St and Conant Dr",c(235955.851935512, 868302.124471675),"BAT"
"391","799540",0,FALSE,"Pearl St and Tiffany Dr",c(235939.641202747, 868137.321649302),"BAT"
"392","799541",0,FALSE,"Pearl St and Belmont St",c(235891.79970012, 867761.432392762),"BAT"
"393","799542",0,FALSE,"Belmont St at Plaza",c(235753.516743334, 867659.432195498),"BAT"
"394","799543",0,FALSE,"Belmont St at Easton Town Line",c(235536.698671929, 867469.070455303),"BAT"
"395","799544",0,FALSE,"Belmont St at Stonehill College",c(235299.373286054, 867255.509907113),"BAT"
"396","799545",0,FALSE,"Bristol Dr and Belmont St",c(235045.625173448, 866928.804526805),"BAT"
"397","799546",0,FALSE,"Bristol Dr and Norfolk Ave",c(235131.369317641, 866699.422483389),"BAT"
"398","799548",0,FALSE,"Pearl Street & Belmont Street",c(235893.302747291, 867796.057504899),"BAT"
"399","799549",0,FALSE,"Belmont St and Stonehill College",c(235283.429675303, 867232.438277379),"BAT"
"400","799550",0,FALSE,"Belmont St and Williamsburg Sq",c(235610.821110652, 867527.090408609),"BAT"
"401","799551",0,FALSE,"West Chestnut St and Pearl St",c(235905.414418098, 867070.821694071),"BAT"
"402","799553",0,FALSE,"West Chestnut St and Liberty St",c(236299.911359697, 867143.318865288),"BAT"
"403","799554",0,FALSE,"110 Liberty Street Shelter",c(236175.647480174, 867561.489863296),"BAT"
"404","799555",0,FALSE,"Pearl St and Belmont St",c(235924.932936544, 867888.555890046),"BAT"
"405","799556",0,FALSE,"Pearl St and Westlea Ter",c(235946.076939784, 868173.786139609),"BAT"
"406","799557",0,FALSE,"Pearl St and College Dr",c(235957.233291202, 868290.913200389),"BAT"
"407","799558",0,FALSE,"Pearl St and Calbert Road",c(235973.073563198, 868447.050564856),"BAT"
"408","799559",0,FALSE,"Pearl St and Mayotte Circle",c(236000.930557354, 868701.772457948),"BAT"
"409","799560",0,FALSE,"Pearl St and Richard St",c(236007.153862448, 868872.520537814),"BAT"
"410","799561",0,FALSE,"Torrey St and Greenbriar Rd",c(236303.964034916, 869074.637684687),"BAT"
"411","799563",0,FALSE,"Torrey St and Rockford St",c(236756.935625463, 869177.391506768),"BAT"
"412","799564",0,FALSE,"Torrey St and Bigney St",c(236974.339332006, 869223.844575741),"BAT"
"413","799565",0,FALSE,"Torrey St and Harwich Rd",c(237483.310613401, 869343.266372911),"BAT"
"414","799566",0,FALSE,"Torrey Street and Shaws Plaza",c(237656.476810282, 869403.022400894),"BAT"
"415","799567",0,FALSE,"West St and Neubert St",c(237765.293419922, 869691.316172645),"BAT"
"416","799568",0,FALSE,"W Elm Street and Morse Avenue",c(237789.059960031, 870017.793448765),"BAT"
"417","799569",0,FALSE,"West Elm St and Doris Ave",c(238155.949020824, 870090.280182736),"BAT"
"418","799571",0,FALSE,"West Elm St and Arlington St",c(239115.632998144, 870253.257294503),"BAT"
"419","799572",0,FALSE,"West Elm St and Warren Ave",c(239374.65209917, 870283.821478594),"BAT"
"420","799574",2,FALSE,"Court St and Hunt St",c(240354.163664437, 870769.055997939),"BAT"
"421","799575",2,FALSE,"Court St and Manchester St",c(240498.048450081, 870797.093154381),"BAT"
"422","799576",2,FALSE,"Court St and Tyler St",c(240616.806556805, 870820.545663634),"BAT"
"423","799577",2,FALSE,"Court St and Albert Ave",c(240740.2848373, 870843.138840424),"BAT"
"424","799578",2,FALSE,"Court St and Rufus St",c(240878.392009535, 870868.262517661),"BAT"
"425","799579",2,FALSE,"Court St and Cary St",c(240999.988631038, 870915.39651256),"BAT"
"426","799580",2,FALSE,"Court St and Rainville St",c(241044.662623718, 870972.858879864),"BAT"
"427","799581",2,FALSE,"Court St and Ida Ave",c(241170.862318272, 871138.093402477),"BAT"
"428","799582",2,FALSE,"Court St and Kathleen Rd",c(241247.1374093, 871223.843049795),"BAT"
"429","799583",2,FALSE,"Court St and Pontiac Rd",c(241521.543843543, 871395.283354142),"BAT"
"430","799584",2,FALSE,"Court St and Mildred Rd",c(241646.922962949, 871472.107428109),"BAT"
"431","799585",2,FALSE,"Court St at Cardinal Spellman",c(241896.062715682, 871618.310807484),"BAT"
"432","799586",2,FALSE,"Court St and Deed Cir",c(242029.382563412, 871693.967093193),"BAT"
"433","799587",2,FALSE,"Court St and Quincy St",c(242197.556801647, 871778.498003275),"BAT"
"434","799589",2,FALSE,"North Quincy St and Regent Rd",c(242167.34815172, 872085.324253835),"BAT"
"435","799590",2,FALSE,"North Quincy St and East Ashland St",c(242145.050300723, 872176.04908158),"BAT"
"436","799591",2,FALSE,"North Quincy St and Anne Marie Dr",c(242104.410350543, 872332.531051587),"BAT"
"437","799592",2,FALSE,"North Quincy St and Rosemary St",c(242068.111795272, 872468.712719118),"BAT"
"438","799593",2,FALSE,"North Quincy St and VFW Rd",c(241991.45462429, 872854.125316813),"BAT"
"439","799595",2,FALSE,"North Quincy St and Maplewood",c(241713.214166286, 873132.824193786),"BAT"
"440","799596",2,FALSE,"North Quincy St and Pratt St",c(241505.260017873, 873403.616695687),"BAT"
"441","799597",2,FALSE,"North Quincy St and Armiston St",c(241486.895789287, 873516.692616862),"BAT"
"442","799598",2,FALSE,"North Quincy St and Hovendon Ave",c(241342.165753323, 874136.855362689),"BAT"
"443","799599",2,FALSE,"Hovendon Ave and Kevin Rd",c(241261.447329771, 874123.609252638),"BAT"
"444","799600",2,FALSE,"Hovendon Ave and Elsie Rd",c(240988.067182866, 874148.673018698),"BAT"
"445","799601",2,FALSE,"Hovendon Ave and Lynn Rd",c(240893.945573964, 874122.135486352),"BAT"
"446","799602",2,FALSE,"Hovendon Ave and Sully Rd",c(240771.474445437, 874049.784051722),"BAT"
"447","799603",2,FALSE,"Hovendon Ave and Belcher St",c(240528.651083842, 873880.441477031),"BAT"
"448","799604",2,FALSE,"Hovendon Ave and Haskell St",c(240303.845091487, 873740.089392654),"BAT"
"449","799605",2,FALSE,"Hovendon Ave and Jordan St",c(240151.134072443, 873645.805726455),"BAT"
"450","799606",2,FALSE,"Hovendon Ave and Bonney St",c(239991.130911026, 873538.710612825),"BAT"
"451","799607",2,FALSE,"Hovendon Ave and Sprague St",c(239894.319586948, 873473.850933006),"BAT"
"452","799608",2,FALSE,"Hovendon Ave and Angerer Ave",c(239769.115182246, 873369.068200466),"BAT"
"453","799609",2,FALSE,"Field St and Spark St",c(239695.843510107, 873000.447361),"BAT"
"454","799610",2,FALSE,"MBTA Montello Station",c(239646.669025216, 873021.607617294),"BAT"
"455","799611",2,FALSE,"Spark St and Cameron Cooper St",c(239617.243034826, 873078.534361551),"BAT"
"456","799612",2,FALSE,"Spark St and Sylvan St",c(239553.153716613, 873194.579588742),"BAT"
"457","799613",2,FALSE,"Howard St and Winter St",c(239484.588058878, 873357.140082251),"BAT"
"458","799614",2,FALSE,"Howard St and Claremont Ct",c(239449.191745044, 873534.215140774),"BAT"
"459","799615",2,FALSE,"Howard St and Chisholm Ave",c(239425.965948299, 873650.045906099),"BAT"
"460","799616",2,FALSE,"449 Howard Street",c(239739.044222038, 874185.066370386),"BAT"
"461","799617",2,FALSE,"Howard St at Eisenhower Estates",c(239860.622307059, 874285.163180149),"BAT"
"462","799622",2,FALSE,"North Quincy St and Jon Dr",c(241307.672910731, 874378.238470954),"BAT"
"463","799623",2,FALSE,"North Quincy St and Brookfield Dr",c(241327.068199755, 874285.938796782),"BAT"
"464","799625",2,FALSE,"North Quincy St at St Nick Church",c(241403.095619074, 873886.408504272),"BAT"
"465","799627",2,FALSE,"North Quincy St and Christopher Rd",c(241469.620337494, 873543.137618402),"BAT"
"466","799628",2,FALSE,"North Quincy St and Bedford St",c(241483.749275423, 873475.13260311),"BAT"
"467","799667",2,FALSE,"Crosby Gardens",c(240018.940110697, 872907.633832005),"BAT"
"468","799683",2,FALSE,"Coe Rd and Upton St",c(241192.196941403, 872571.063327596),"BAT"
"469","799684",2,FALSE,"Coe Rd and Norwich Rd",c(241455.50783542, 872623.14401844),"BAT"
"470","799685",2,FALSE,"Coe Rd and Alphonse Rd",c(241515.986337253, 872634.940211461),"BAT"
"471","799686",2,FALSE,"Alphonse Rd and Annella Rd",c(241582.682162874, 872504.044211617),"BAT"
"472","799687",2,FALSE,"Alphonse Rd and Waleco Rd",c(241601.691723879, 872436.512568419),"BAT"
"473","799688",2,FALSE,"Colgate Rd and Nicholson Dr",c(241534.769972031, 872240.295893645),"BAT"
"474","799689",2,FALSE,"Colgate Rd and East Ashland St",c(241545.072506079, 872106.179924766),"BAT"
"475","799690",2,FALSE,"East Ashland St and Bishop St",c(241393.697570765, 872076.966514205),"BAT"
"476","799691",2,FALSE,"East Ashland St and Eastfield Dr",c(241199.17123734, 872028.288575764),"BAT"
"477","799692",2,FALSE,"East Ashland St and Thayer St",c(240902.677485567, 871983.044276271),"BAT"
"478","799693",2,FALSE,"East Ashland St and North Cary St",c(240691.795701561, 871905.71827516),"BAT"
"479","799698",2,FALSE,"North Montello St and Lebanon St",c(239915.469928947, 871430.889026424),"BAT"
"480","799699",2,FALSE,"North Montello St and Elliot St",c(239919.055921102, 871221.092229725),"BAT"
"481","799700",2,FALSE,"North Montello St and Charles St",c(239923.687819529, 871031.183484039),"BAT"
"482","799701",2,FALSE,"West Main St and Bows Ln",c(238358.546981944, 874039.359640231),"BAT"
"483","799702",2,FALSE,"West Main St and Maple Ave",c(238301.492862076, 874098.807071811),"BAT"
"484","799703",2,FALSE,"West Main St and Oak St",c(238179.04779707, 874261.198950385),"BAT"
"485","799704",2,FALSE,"West Main St and Glendower St",c(238122.901181714, 874382.853835085),"BAT"
"486","799705",2,FALSE,"West Main St and School St",c(238071.33025728, 874499.757716926),"BAT"
"487","799706",2,FALSE,"West Main St and Dawson St",c(238030.880902356, 874594.062968006),"BAT"
"488","799707",2,FALSE,"West Main St and Everett St",c(238000.755323164, 874660.211423195),"BAT"
"489","799708",2,FALSE,"West Main St and West Spring St",c(237938.355598351, 874884.799202924),"BAT"
"490","799709",2,FALSE,"West Main St and Gill St",c(237920.448886714, 875000.996813425),"BAT"
"491","799710",2,FALSE,"West Main St and Rock St",c(237900.000269365, 875251.801898707),"BAT"
"492","799711",2,FALSE,"West Main St and Bartlett St",c(237882.411411358, 875555.382417288),"BAT"
"493","799713",2,FALSE,"East Main St and East High St",c(238048.108752028, 875922.261933191),"BAT"
"494","799714",2,FALSE,"South Main St and Acorn Dr",c(238031.28526481, 876466.209970361),"BAT"
"495","799715",2,FALSE,"South Main St and Karen Dr",c(237988.131305115, 876865.176335887),"BAT"
"496","799716",2,FALSE,"South Main St and Frederickson Dr",c(237970.66963603, 876945.49968545),"BAT"
"497","799717",2,FALSE,"South Main St and Woodlawn Rd",c(237930.574322633, 877130.443871),"BAT"
"498","799718",2,FALSE,"South Main St and Centre St",c(237907.352530736, 877221.510574025),"BAT"
"499","799719",2,FALSE,"South Main St and Selwyn Rd",c(237770.927568478, 877613.535462402),"BAT"
"500","799720",2,FALSE,"South Main St and Woodland Pkwy",c(237693.348907833, 877854.150568966),"BAT"
"501","799721",2,FALSE,"South Main St and Richard Rd",c(237662.22438667, 878017.596085888),"BAT"
"502","799722",2,FALSE,"South Main St and Terry Dr",c(237655.486046649, 878505.396906485),"BAT"
"503","799723",2,FALSE,"South Main St and Darrell Dr",c(237686.273553917, 878590.088752737),"BAT"
"504","799724",2,FALSE,"South Main St and Maple St",c(237773.003540712, 878876.568625532),"BAT"
"505","799725",2,FALSE,"Randolph Square",c(237887.217347071, 879168.195735789),"BAT"
"506","799779",2,FALSE,"Ashmont Station",c(235953.199730841, 892754.225696045),"BAT"
"507","799780",2,FALSE,"Dorchester Ave and Fuller St",c(235891.466428417, 892716.028033744),"BAT"
"508","799781",2,FALSE,"Dorchester Ave and Mercier St",c(235865.100737064, 892581.157880418),"BAT"
"509","799782",2,FALSE,"Dorchester Ave and Hurlcroft Ave",c(235847.405891264, 892492.65088848),"BAT"
"510","799783",2,FALSE,"Dorchester Ave and Galivan Blvd",c(235800.977621412, 892263.930410233),"BAT"
"511","799784",2,FALSE,"Dorchester Ave and Valley Rd",c(235757.361550709, 892049.331327351),"BAT"
"512","799785",2,FALSE,"Dorchester Ave and St Gregory St",c(235698.639357756, 891771.231420956),"BAT"
"513","799786",2,FALSE,"Dorchester Ave and Mother Julia Rd",c(235676.322861502, 891666.04013064),"BAT"
"514","799787",2,FALSE,"Dorchester Ave and Richmond St",c(235664.323253276, 891592.224703912),"BAT"
"515","799788",2,FALSE,"Dorchester Ave and Washington St",c(235630.288269333, 891406.221846205),"BAT"
"516","799789",2,FALSE,"River St and Wichita Ter",c(235419.407327268, 891378.276727696),"BAT"
"517","799790",2,FALSE,"River St and Temple St",c(235307.144945761, 891359.162806396),"BAT"
"518","799791",2,FALSE,"Central Ave and River St",c(235173.509332301, 891275.29752089),"BAT"
"519","799792",2,FALSE,"Central Ave and Maple St",c(235165.335055057, 891029.112113592),"BAT"
"520","799793",2,FALSE,"Central Ave and Griggs Ln",c(234985.213589879, 890868.375899384),"BAT"
"521","799794",2,FALSE,"Central Ave and Valley Rd",c(234882.685887951, 890697.698525991),"BAT"
"522","799795",2,FALSE,"Central Ave and Columbine Rd",c(234793.467037796, 890537.529647067),"BAT"
"523","799796",2,FALSE,"Central Ave and Allerton Rd",c(234592.626061405, 890072.464600655),"BAT"
"524","799797",2,FALSE,"Central Ave and Russelwood Rd",c(234580.099143266, 890002.314208548),"BAT"
"525","799798",2,FALSE,"Central Ave and Brook Rd",c(234557.725396932, 889870.579513804),"BAT"
"526","799799",2,FALSE,"Reedsdale Rd and Central Ave",c(234573.604621219, 889795.903517813),"BAT"
"527","799800",2,FALSE,"Reedsdale Rd and Walnut St",c(234743.378394352, 889569.811834777),"BAT"
"528","799801",2,FALSE,"Reedsdale Rd & Canton Ave",c(234848.015559605, 889435.15000248),"BAT"
"529","799802",2,FALSE,"Reedsdale Rd and Spafford St",c(235171.882292914, 889025.447713846),"BAT"
"530","799803",2,FALSE,"Reedsdale Rd and Buckingham Rd",c(235221.786186932, 888963.939197685),"BAT"
"531","799804",2,FALSE,"Reedsdale Rd and Martin Rd",c(235313.293040242, 888851.100541036),"BAT"
"532","799806",2,FALSE,"Randolph Ave and Pleasant St",c(235532.903095834, 888407.347942437),"BAT"
"533","799807",2,FALSE,"Randolph Ave and Reed St",c(235527.655202066, 888138.962961902),"BAT"
"534","799808",2,FALSE,"Randolph Ave and Highland St",c(235522.537684082, 887877.354370219),"BAT"
"535","799809",2,FALSE,"Randolph Ave and Hallen St",c(235518.326396745, 887665.067956105),"BAT"
"536","799810",2,FALSE,"Randolph Ave and Hillside St",c(235401.333323072, 886851.407223962),"BAT"
"537","799811",2,FALSE,"Randolph Ave and Chickatawbut Rd",c(235435.133742528, 886072.829091823),"BAT"
"538","799812",2,FALSE,"North Main St and Scanlon Dr",c(236102.594357356, 883514.609234796),"BAT"
"539","799813",2,FALSE,"North Main St and Soren St",c(236200.839125136, 883231.984037032),"BAT"
"540","799814",2,FALSE,"North Main St and Hills St",c(236235.698894481, 883086.211157698),"BAT"
"541","799815",2,FALSE,"North Main St and Waldo St",c(236258.993206208, 882941.156463009),"BAT"
"542","799816",2,FALSE,"North Main St and Royal St",c(236323.659243984, 882653.806361162),"BAT"
"543","799817",2,FALSE,"North Main St and Reed St",c(236382.237656512, 882458.617387565),"BAT"
"544","799818",2,FALSE,"North Main St and Intervale Rd",c(236499.072812344, 882227.85343166),"BAT"
"545","799819",2,FALSE,"North Main St and Gordon St",c(236574.755809202, 882080.961105908),"BAT"
"546","799820",2,FALSE,"North Main St and Chestnut St",c(236773.709601504, 881692.902785581),"BAT"
"547","799821",2,FALSE,"North Main St and Vesey Rd",c(237151.606744036, 880916.697823482),"BAT"
"548","799822",2,FALSE,"North Main St and Grove St",c(237305.558669039, 880551.18800621),"BAT"
"549","799823",2,FALSE,"North Main St and Jasper Ln",c(237356.994425305, 880418.060249494),"BAT"
"550","799824",2,FALSE,"North Main St and Nelson Dr",c(237464.946079685, 880129.840214766),"BAT"
"551","799825",2,FALSE,"North Main St and West St",c(237544.934619264, 879958.211892438),"BAT"
"552","799826",2,FALSE,"North Main St and Depot St",c(237661.778852069, 879709.584781235),"BAT"
"553","799827",2,FALSE,"North Main St and Warren St",c(237711.785767387, 879598.777988326),"BAT"
"554","799828",2,FALSE,"North Main St and Diauto Dr",c(237776.149881994, 879461.390696084),"BAT"
"555","799829",2,FALSE,"North Main St and Memorial Pkwy",c(237838.00584851, 879329.877470908),"BAT"
"556","799830",2,FALSE,"North Main St and Turner Ln",c(237870.10798979, 879261.072836563),"BAT"
"557","799831",2,FALSE,"Randolph Square",c(237880.86383784, 879197.151933895),"BAT"
"558","799832",2,FALSE,"South Main St and Elgin Ct",c(237769.078840619, 878914.979222807),"BAT"
"559","799833",2,FALSE,"South Main St and Woodlawn St",c(237725.883471326, 878786.56844157),"BAT"
"560","799834",2,FALSE,"South Main St and Fairview Ave",c(237675.162724374, 878612.355236872),"BAT"
"561","799836",2,FALSE,"South Main St and Fitch Ter",c(237588.243292774, 878205.027247323),"BAT"
"562","799837",2,FALSE,"South Main St and Stoughton St",c(237667.725469171, 877885.225379275),"BAT"
"563","799838",2,FALSE,"South Main St and Selwyn Rd",c(237744.760026798, 877622.503374634),"BAT"
"564","799839",2,FALSE,"South Main St and Summit Rd",c(237970.274272142, 876865.413370587),"BAT"
"565","799840",2,FALSE,"South Main St and Langley Rd",c(238012.627372209, 876415.459756569),"BAT"
"566","799841",2,FALSE,"South Main St and High St",c(238025.327807187, 875915.252490388),"BAT"
"567","799842",2,FALSE,"West Main St and Pratt St",c(237954.866800732, 875780.807060212),"BAT"
"568","799843",2,FALSE,"West Main St and Pond St",c(237865.544890266, 875478.317870181),"BAT"
"569","799844",2,FALSE,"West Main St and Feely St",c(237899.782864122, 875138.394691643),"BAT"
"570","799845",2,FALSE,"West Main St and Lisa Ln",c(237914.328717142, 874985.857918253),"BAT"
"571","799846",2,FALSE,"West Main St and Avon Pl",c(237941.206045063, 874816.060073302),"BAT"
"572","799847",2,FALSE,"West Main St and Klondike Rd",c(238004.094404578, 874623.686259295),"BAT"
"573","799848",2,FALSE,"West Main St and Nichols Ave",c(238181.276871243, 874231.332278385),"BAT"
"574","799853",1,FALSE,"Oak St and Chatham West Dr",c(237189.570292221, 872460.748063078),"BAT"
"575","799854",1,FALSE,"Oak St and Oak Lane",c(237375.92078974, 872462.843544953),"BAT"
"576","799855",1,FALSE,"Oak Street at Fuller Art Museum",c(237626.052170374, 872448.289629977),"BAT"
"577","799856",1,FALSE,"Oak St across DW Field Golf Course",c(238003.683132465, 872412.659884879),"BAT"
"578","799857",1,FALSE,"Belair Street and Tucker Drive",c(238138.511067109, 872198.794230015),"BAT"
"579","799858",1,FALSE,"Belair St at Anne Ave",c(238155.295916059, 872062.487261065),"BAT"
"580","799859",0,FALSE,"Belair St at Earle St",c(238231.094669842, 871543.529244252),"BAT"
"581","799861",1,FALSE,"Sullivan Towers",c(238077.691109388, 871673.891121799),"BAT"
"582","799863",1,FALSE,"Colonel Bell Drive and Belair Street",c(238265.132173074, 871256.963965773),"BAT"
"583","799876",2,FALSE,"Stop and Shop Plaza",c(237493.918890962, 869085.937641271),"BAT"
"584","799903",2,FALSE,"Good Samaritan Rd at Oak St",c(236198.755843064, 872240.890881724),"BAT"
"585","799905",2,FALSE,"WalMart (Oak St, Brockton)",c(236724.148150728, 872099.991515439),"BAT"
"586","799906",0,FALSE,"Campanelli Dr at Ocean State Job Lot",c(237009.211552289, 872199.444561701),"BAT"
"587","799908",0,FALSE,"Westgate Dr at Westgate Dialysis",c(236847.731159519, 871884.707245147),"BAT"
"588","799913",2,FALSE,"North Main St and Court St",c(239730.446511983, 870703.316036668),"BAT"
"589","799914",2,FALSE,"Spring St and North Main St",c(239720.443075894, 870834.214794344),"BAT"
"590","799915",2,FALSE,"Spring St and Walnut St",c(239531.720348451, 870804.831455874),"BAT"
"591","799916",2,FALSE,"North Warren Ave and Spring St",c(239407.677977878, 870793.585745597),"BAT"
"592","799917",2,FALSE,"North Warren Ave and Wyman St",c(239330.509935726, 871071.059863615),"BAT"
"593","799918",2,FALSE,"North Warren Ave and Walnut Ave",c(239302.494504219, 871169.42553807),"BAT"
"594","799919",2,FALSE,"North Warren Ave and Prospect St",c(239268.455281492, 871294.859627863),"BAT"
"595","799920",2,FALSE,"North Warren Ave and Hunnington St",c(239211.796423126, 871471.372839261),"BAT"
"596","799921",2,FALSE,"North Warren Ave and Ford St",c(239167.298141335, 871618.630729236),"BAT"
"597","799922",2,FALSE,"North Warren Ave and Richmond St",c(239097.929190073, 871835.504965098),"BAT"
"598","799923",2,FALSE,"North Warren Ave and Battles St",c(239046.250861261, 871995.497287184),"BAT"
"599","799929",2,FALSE,"Oak St and Colantha Ave",c(238318.771095907, 872394.482071187),"BAT"
"600","799930",2,FALSE,"Oak Street at DW Field Golf Course",c(238017.841342778, 872425.509568556),"BAT"
"601","799931",2,FALSE,"Fuller Art Museum",c(237637.482589666, 872460.901854625),"BAT"
"602","799932",2,FALSE,"Greek Orthodox Church",c(237369.807897317, 872476.917440576),"BAT"
"603","799933",2,FALSE,"Oak St and Chatham West Dr",c(237202.576559583, 872472.701447961),"BAT"
"604","799934",2,FALSE,"Campanelli Dr and Oak St",c(236983.953527848, 872441.562312066),"BAT"
"605","799935",2,FALSE,"Campanelli Dr at Auto Zone Warehouse",c(237015.965466906, 872094.627109369),"BAT"
"606","799936",2,FALSE,"Westgate Dr at Dentist Building",c(236810.582483572, 871521.082849735),"BAT"
"607","799937",2,FALSE,"Oak St and Oakridge Dr",c(238249.839913302, 872384.222522517),"BAT"
"608","799943",2,FALSE,"North Warren Ave at Richmond St",c(239086.130967654, 871844.76973903),"BAT"
"609","799944",2,FALSE,"North Warren Ave at Ford St",c(239159.539283597, 871615.477619147),"BAT"
"610","799945",2,FALSE,"North Warren Ave at Prospect St",c(239257.120248422, 871295.018704302),"BAT"
"611","799946",2,FALSE,"North Warren Ave at Milton St",c(239294.738920895, 871165.605863641),"BAT"
"612","799947",2,FALSE,"North Warren Ave across from Wyman St",c(239322.74064224, 871069.6836892),"BAT"
"613","799948",2,FALSE,"North Warren Ave at Spring St",c(239404.747668825, 870770.132984598),"BAT"
"614","799949",0,FALSE,"Pleasant St at Glenwood St",c(239193.811584225, 870792.061479925),"BAT"
"615","799957",0,FALSE,"Oak St at Madrid Sq",c(236829.773913396, 872440.533635123),"BAT"
"616","799958",0,FALSE,"Oak Street at Pines Estates",c(236503.562680575, 872376.261917787),"BAT"
"617","799964",0,FALSE,"North Pearl St at Canterbury Arms Apts",c(235829.232491688, 872341.636036045),"BAT"
"618","799965",0,FALSE,"Park St at Brockton-Stoughton Line",c(235791.302056301, 872464.734443327),"BAT"
"619","799966",0,FALSE,"Park St at Our Lady of Rosary Church",c(235733.238187564, 872627.384102729),"BAT"
"620","799967",0,FALSE,"1256 Park St",c(235701.407124451, 872706.306885891),"BAT"
"621","799968",0,FALSE,"Park St in front of Trailer Park",c(235650.031975822, 872855.551284578),"BAT"
"622","799969",0,FALSE,"Park St in front of Blue Hill Nursing Home",c(235488.702271949, 873307.582437942),"BAT"
"623","799970",0,FALSE,"Park St - Medical Building",c(235341.947407903, 873512.219694909),"BAT"
"624","799971",0,FALSE,"Park St at Tenth Ave",c(235207.215197451, 873612.955642559),"BAT"
"625","799972",0,FALSE,"Park St across from Ash St",c(234951.975631277, 873766.633228443),"BAT"
"626","799974",0,FALSE,"Park St at William Kelly Rd",c(234352.290423262, 874296.504655736),"BAT"
"627","799975",0,FALSE,"Park St opposite Haynes Rd",c(234238.94382642, 874426.908690757),"BAT"
"628","799977",0,FALSE,"Park St across from Bobs Plaza",c(233754.896590761, 874536.572991123),"BAT"
"629","799978",0,FALSE,"Park St and Leach St",c(233559.459772527, 874598.694103597),"BAT"
"630","799979",0,FALSE,"Park St and Sumner St at Park Ave",c(233390.822185874, 874657.317806715),"BAT"
"631","799980",0,FALSE,"Park St at Walnut (Library)",c(233134.795960004, 874766.183753499),"BAT"
"632","799981",0,FALSE,"Stoughton Center",c(232902.979499878, 875111.9838177),"BAT"
"633","799982",0,FALSE,"Washington St at Peoples Savings Bank",c(232913.436688271, 875279.859924326),"BAT"
"634","799983",0,FALSE,"Washington St at Lincoln St (Friendlys)",c(232924.716847363, 875484.842510407),"BAT"
"635","799984",0,FALSE,"Washington St at Warren Ave",c(232932.900278234, 875821.654592593),"BAT"
"636","799985",0,FALSE,"Washington St at Car Wash",c(232933.462751792, 875949.058194083),"BAT"
"637","799986",0,FALSE,"Washington St at McDonalds/Dunkin Donuts",c(232935.580726551, 876062.029562007),"BAT"
"638","799987",0,FALSE,"Central St at 1st Cemetery Entrance",c(232739.383563367, 876153.41778403),"BAT"
"639","799988",0,FALSE,"Central St at Temple Ahavath Torah Congregation",c(232411.57338151, 876065.821688244),"BAT"
"640","799989",0,FALSE,"Central St at Pearl St",c(232268.060846262, 876027.509707933),"BAT"
"641","799990",0,FALSE,"Central St at Commercial St",c(232046.629756588, 875960.966760878),"BAT"
"642","799991",0,FALSE,"Central St at Simpson St",c(231805.961893809, 875869.241473764),"BAT"
"643","799992",0,FALSE,"Central St at Station St",c(231640.816132168, 875804.631508984),"BAT"
"644","799993",0,FALSE,"Central St at Brooks St",c(231343.775659759, 875725.998124321),"BAT"
"645","799994",0,FALSE,"Central St at Cushing St",c(231170.914118809, 875703.12838961),"BAT"
"646","799995",0,FALSE,"Central St at Tosca Dr",c(230983.190592581, 875675.421444796),"BAT"
"647","799997",0,FALSE,"Central St at Helen Hansen School",c(230565.407800304, 875677.152621425),"BAT"
"648","799998",0,FALSE,"Central St at Mill St",c(230239.45281797, 875781.933164439),"BAT"
"649","799999",0,FALSE,"Central St at Wheeler Circle",c(229930.814304563, 875977.659947588),"BAT"
"650","800000",0,FALSE,"Central St at Erin Rd",c(229833.841960704, 875995.909284569),"BAT"
"651","800001",0,FALSE,"2139 Central St (DAngelos)",c(229639.472784706, 876015.749219015),"BAT"
"652","800002",0,FALSE,"Ethyl Way at West Stoughton Village",c(229349.187477462, 876178.256673364),"BAT"
"653","800003",0,FALSE,"128 Sharon St",c(229127.550218712, 876416.477880368),"BAT"
"654","800004",0,FALSE,"Cobbs Corner (WGM)",c(229331.534712002, 876665.682829625),"BAT"
"655","800005",0,FALSE,"Washington St at Osco Drug",c(229027.817793034, 876625.217150659),"BAT"
"656","800006",0,FALSE,"128 Sharon St (across from Friendlys)",c(229066.965063634, 876433.666340513),"BAT"
"657","800007",0,FALSE,"Sharon St at West Stoughton Village",c(229351.509753037, 876156.607102462),"BAT"
"658","800008",0,FALSE,"Central St at Charles Circle",c(229522.105712059, 876028.141349125),"BAT"
"659","800009",0,FALSE,"2139 Central St (DAngelos)",c(229628.44452373, 876003.818062599),"BAT"
"660","800010",0,FALSE,"Central St at Knollsbrook",c(229830.734204124, 875987.898880205),"BAT"
"661","800011",0,FALSE,"Central Street at Stone Ends",c(229951.482575675, 875958.309925558),"BAT"
"662","800012",0,FALSE,"Central St at Lakewood Rd",c(230127.036667387, 875814.773907917),"BAT"
"663","800013",0,FALSE,"Central St at Mill St",c(230251.897553762, 875771.878896138),"BAT"
"664","800014",0,FALSE,"Central St at Helen Hanson School",c(230536.518873982, 875685.024724982),"BAT"
"665","800016",0,FALSE,"Central St at Tosca Drive",c(230902.953968729, 875665.294953214),"BAT"
"666","800017",0,FALSE,"1595 Central St",c(231045.785949666, 875673.697421476),"BAT"
"667","800018",0,FALSE,"Central St at Brook St",c(231352.90908595, 875717.263952484),"BAT"
"668","800019",0,FALSE,"Central St at Evans Dr",c(231495.145734787, 875747.554280843),"BAT"
"669","800020",0,FALSE,"Central St at Station St",c(231654.813731723, 875799.02959951),"BAT"
"670","800021",0,FALSE,"Central St at Simpson St",c(231827.056003144, 875866.670891187),"BAT"
"671","800022",0,FALSE,"Central Street opposite  (Court House)",c(232112.881998055, 875972.708691467),"BAT"
"672","800023",0,FALSE,"Central St at Pearl St",c(232241.281003885, 876007.949408716),"BAT"
"673","800024",0,FALSE,"Temple Ahavath Torah Congregation",c(232432.024142277, 876059.251323917),"BAT"
"674","800025",0,FALSE,"McCormick Terrace Condo",c(232751.571867286, 876145.810329633),"BAT"
"675","800026",0,FALSE,"Washington St at Walgreens",c(232919.461525346, 876132.374730493),"BAT"
"676","800027",0,FALSE,"Washington St at Phillips Screw",c(232925.028978678, 875949.240957724),"BAT"
"677","800028",0,FALSE,"Washington St at Cumberland Farms",c(232923.965337441, 875840.606389067),"BAT"
"678","800029",0,FALSE,"Washington St at Lincoln St",c(232908.595415747, 875484.545116335),"BAT"
"679","800030",0,FALSE,"Washington Street at People's Savings Bank",c(232899.711521532, 875279.79588275),"BAT"
"680","800031",0,FALSE,"Stoughton Center",c(232888.850794986, 875115.472255428),"BAT"
"681","800032",0,FALSE,"Park St at Walnut St",c(233114.670733936, 874755.315147414),"BAT"
"682","800033",0,FALSE,"Park St at Sumner St",c(233371.496602628, 874652.228053661),"BAT"
"683","800034",0,FALSE,"Park St at Leach St",c(233567.872224538, 874585.960733947),"BAT"
"684","800035",0,FALSE,"Park St at Bobs Plaza",c(233740.326332351, 874525.360195591),"BAT"
"685","800036",0,FALSE,"Park St at Belmont Ave",c(233957.472344492, 874474.753320476),"BAT"
"686","800037",0,FALSE,"Park St at William Kelley Rd",c(234346.987296432, 874281.706110974),"BAT"
"687","800038",0,FALSE,"Park Street (Medical Building)",c(234484.860285764, 874125.43258742),"BAT"
"688","800039",0,FALSE,"Park St at Twinkies",c(234746.891912857, 873880.913838269),"BAT"
"689","800040",0,FALSE,"Park St at Ash St",c(234959.442123643, 873745.233131585),"BAT"
"690","800041",0,FALSE,"Park St at Tenth St",c(235201.473775331, 873603.374707961),"BAT"
"691","800042",0,FALSE,"Park St at Park Med Bldg",c(235330.614946968, 873512.607219783),"BAT"
"692","800043",0,FALSE,"Park St at Noceras",c(235595.773051046, 872970.237828653),"BAT"
"693","800044",0,FALSE,"Park St at Parkview Ave",c(235684.398937932, 872716.550621217),"BAT"
"694","800045",0,FALSE,"Park St at Park Plaza",c(235760.556860954, 872492.346768602),"BAT"
"695","800055",1,FALSE,"Pleasant Street and Hereford Street",c(239513.089427359, 870689.32228576),"BAT"
"696","800056",0,FALSE,"Rockland Community Center",c(248350.560751473, 875519.639527476),"BAT"
"697","800057",0,FALSE,"Ocean State Job Lot",c(248992.903383866, 874951.261210739),"BAT"
"698","800058",0,FALSE,"Studley Court",c(248494.408231617, 874440.316887218),"BAT"
"699","804150",2,FALSE,"North Main St and Battles St",c(239800.618975872, 871980.51268697),"BAT"
"700","807046",1,FALSE,"SPRING STREET LOT",c(243788.515489132, 860273.168301398),"BAT"
"701","807047",1,FALSE,"Art Building",c(243569.18197093, 859883.505015635),"BAT"
"702","807049",2,FALSE,"Harrington Hall",c(243525.739364285, 859765.834271784),"BAT"
"703","807050",1,FALSE,"HOOPER STREET LOT",c(244294.774267351, 860250.110107434),"BAT"
"704","807051",1,FALSE,"SWENSON FIELD LOT",c(244510.690261147, 860200.706687773),"BAT"
"705","807052",1,FALSE,"TINSLEY CENTER",c(244574.436948378, 859999.512572251),"BAT"
"706","807053",1,FALSE,"MOAKLEY CENTER",c(244218.67488191, 859950.738621017),"BAT"
"707","807054",1,FALSE,"University Park",c(244221.095070874, 859934.759387085),"BAT"
"708","807055",1,FALSE,"ECC / CLOCK TOWER",c(244384.328829845, 859817.601904951),"BAT"
"709","807056",1,FALSE,"STUDENT APARTMENTS",c(244480.777485705, 859805.657090018),"BAT"
"710","807057",1,FALSE,"SHEA DURGIN",c(244560.899824277, 859688.869679388),"BAT"
"711","807058",1,FALSE,"WEYGAND HALL/PARKING GARAGE",c(244502.33317122, 859461.802644706),"BAT"
"712","807105",2,FALSE,"Lyman St and Erie Ave",c(240747.003677288, 870156.440708571),"BAT"
"713","807106",1,FALSE,"Lyman St and Centre St",c(240949.532469941, 870463.892268177),"BAT"
"714","807107",0,FALSE,"Torrey Street and Pearl Street at Synagogue",c(236072.137013871, 869043.631021962),"BAT"
"715","807108",2,FALSE,"Stop and Shop Plaza",c(239229.45595651, 873262.387744902),"BAT"
"716","807112",2,FALSE,"Avon Square",c(238027.881985938, 875832.269187387),"BAT"
"717","807886",0,FALSE,"Stop and Shop and Target 1",c(247173.012432268, 873391.320619779),"BAT"
"718","810903",0,FALSE,"Stop and Shop and Target 2",c(247369.929659183, 873534.754117334),"BAT"
