"","stop_id","passing_values","frequent_stop","stop_name","geometry","RTA"
"1","2326132",0,FALSE,"Scituate Library Community Center",c(263829.265148207, 883641.870678511),"GATRA"
"2","2326135",0,FALSE,"North Scituate Plaza",c(259123.16187899, 885694.706691486),"GATRA"
"3","2326136",0,FALSE,"Lincoln Park",c(258640.776661634, 885867.841797836),"GATRA"
"4","2326309",0,FALSE,"Indian Brook School",c(279681.589549326, 849256.217089561),"GATRA"
"5","2332197",0,FALSE,"Hannaford Supermarket",c(231436.315397661, 848514.942249636),"GATRA"
"6","2332283",1,FALSE,"Market Basket",c(212218.045001094, 849863.319874297),"GATRA"
"7","2383925",0,FALSE,"Plain Street and East Water Street (Eastbound)",c(234163.125133063, 848429.606366059),"GATRA"
"8","2383928",0,FALSE,"County Street and Karena Drive",c(236115.626723672, 847916.712625153),"GATRA"
"9","2383936",0,FALSE,"Shaw's",c(264129.724093956, 834623.763245776),"GATRA"
"10","2383942",1,FALSE,"Pleasant Street and Peck Street",c(218394.13023428, 855327.907342421),"GATRA"
"11","2383947",0,FALSE,"1008 West Main Street",c(224977.842851939, 856835.102529242),"GATRA"
"12","2383951",0,FALSE,"Bay Street and Field Street",c(231786.72689558, 856311.633897009),"GATRA"
"13","2437317",0,FALSE,"Shaw's (Kingston)",c(267461.654712228, 855847.004014651),"GATRA"
"14","2484309",0,FALSE,"MAP Academy",c(265392.470603412, 855708.685823103),"GATRA"
"15","2484310",0,FALSE,"Our Lady of Lourdes",c(260953.482194791, 848637.179297461),"GATRA"
"16","2559007",0,FALSE,"Academy Dr - Buzzard's Bay",c(273548.152243496, 833145.50133093),"GATRA"
"17","2559008",0,FALSE,"Academy Dr - Buzzard's Bay",c(273550.166542622, 833161.878563068),"GATRA"
"18","2559120",0,FALSE,"Wareham Crossing",c(262856.323644402, 836465.357416065),"GATRA"
"19","2559121",0,FALSE,"Cromeset Woods",c(263600.904657321, 833260.156190572),"GATRA"
"20","2559122",0,FALSE,"Kingsbury Plaza",c(263612.25742768, 862165.094542349),"GATRA"
"21","2559128",0,FALSE,"Webster Square",c(265579.729010973, 871366.708709793),"GATRA"
"22","2559134",0,FALSE,"Roche Bros.",c(262830.227245182, 872953.845707614),"GATRA"
"23","2559135",0,FALSE,"Duxbury Housing Complex",c(267415.536897678, 864249.605120676),"GATRA"
"24","2559140",0,FALSE,"Tura's Pharmacy",c(263751.171191523, 861228.56102068),"GATRA"
"25","2559142",0,FALSE,"Tura's Pharmacy",c(263762.352792071, 861247.322427214),"GATRA"
"26","2559143",0,FALSE,"Beach Street Green Harbor General Store",c(270271.892491056, 870395.647219175),"GATRA"
"27","2574366",0,FALSE,"Main Street and Summer Street (Eastbound)",c(234096.33147978, 850168.41756934),"GATRA"
"28","2574369",0,FALSE,"Main Street and Summer Street (Westbound)",c(234105.458852444, 850180.978182443),"GATRA"
"29","2574377",0,FALSE,"County St & Hart St",c(235944.430110671, 848386.811778691),"GATRA"
"30","2574382",0,FALSE,"County St & Mozzone Blvd",c(236550.321076813, 847359.246254727),"GATRA"
"31","2574390",0,FALSE,"N Washington St & High St",c(213894.057523144, 859313.147565856),"GATRA"
"32","2574406",0,FALSE,"South Ave & Greenfield St",c(214636.215764143, 853702.308772966),"GATRA"
"33","2574407",0,FALSE,"South Ave & Lathrop Rd",c(215274.983563488, 853751.529553358),"GATRA"
"34","2574408",0,FALSE,"South Ave & Lathrop Rd",c(215273.623522587, 853763.272525697),"GATRA"
"35","2574409",0,FALSE,"South Ave & Greenfield St",c(214630.411026323, 853712.491395146),"GATRA"
"36","2575001",0,FALSE,"County Rd & Taunton Depot Drive",c(236143.71546151, 847729.969000801),"GATRA"
"37","2577987",0,FALSE,"North Hub",c(213873.805180443, 858816.704705711),"GATRA"
"38","2584564",0,FALSE,"All American/Rosebrook",c(263984.273648986, 836254.70455272),"GATRA"
"39","2735457",0,FALSE,"Staples & ALDI's",c(237712.03505669, 850605.095526539),"GATRA"
"40","2735461",0,FALSE,"Plain Street and East Water Street (Westbound)",c(234169.863481976, 848448.779010095),"GATRA"
"41","2735477",1,FALSE,"Colony Ave & Middleboro Ave",c(239116.732601654, 848157.69995036),"GATRA"
"42","2735478",0,FALSE,"Colony Ave & Middleboro Ave",c(239097.237153034, 848145.850371809),"GATRA"
"43","2735497",0,FALSE,"Hart St & County St",c(235953.722290917, 848331.571721027),"GATRA"
"44","2735498",0,FALSE,"Hart St & County St",c(235969.389525176, 848336.917723948),"GATRA"
"45","2745403",0,FALSE,"CVS Cranberry Hwy",c(269512.927544088, 834716.648646193),"GATRA"
"46","2745409",0,FALSE,"Onset Ave & Depot St.",c(268480.82774033, 834327.378681426),"GATRA"
"47","2745411",0,FALSE,"Court House (West Wareham)",c(260481.493842995, 839243.437635547),"GATRA"
"48","2745412",0,FALSE,"Onset Ave & Depot St.",c(268474.923887772, 834304.811775017),"GATRA"
"49","2754816",0,FALSE,"Wareham MultiService Center",c(264618.482755298, 834649.73790035),"GATRA"
"50","2754817",0,FALSE,"Southcoast Health System",c(251223.893045166, 822877.369240695),"GATRA"
"51","2754818",0,FALSE,"Route 6 at North St. Mattapoisett",c(257249.583515617, 823953.992184563),"GATRA"
"52","2754819",0,FALSE,"Route 6 at Route 105 Marion",c(260749.620562435, 829696.809482556),"GATRA"
"53","2754821",0,FALSE,"SRTA New Bedford Terminal",c(247665.31659527, 820778.656795535),"GATRA"
"54","2754822",0,FALSE,"Route 6 at North St. Mattapoisett",c(257240.324364495, 823966.380978615),"GATRA"
"55","2754823",0,FALSE,"Route 6 at Route 105 Marion",c(260724.782640391, 829704.151303697),"GATRA"
"56","4147999",0,FALSE,"Hillcrest Acres",c(219282.206214149, 854791.939075781),"GATRA"
"57","4148000",0,FALSE,"Plainville Commons Marketplace",c(215590.249897562, 864994.584997093),"GATRA"
"58","4148002",0,FALSE,"Broadway and Washington St",c(233953.974013533, 852354.599722327),"GATRA"
"59","4148003",0,FALSE,"Broadway and Washington St",c(233937.033482642, 852370.526427359),"GATRA"
"60","4148004",0,FALSE,"Market Basket Raynham",c(234568.516043699, 854207.519403653),"GATRA"
"61","4148005",0,FALSE,"Walmart Raynham",c(234423.222230678, 853971.987403812),"GATRA"
"62","4148006",0,FALSE,"Highland Hills Apartments",c(232980.739752966, 848035.587425743),"GATRA"
"63","4149352",0,FALSE,"South Ave & Tiffany St",c(214251.10245965, 853620.42520167),"GATRA"
"64","4149353",0,FALSE,"South Ave & Tiffany St",c(214270.795181277, 853602.138437905),"GATRA"
"65","4149375",0,FALSE,"Sturdy Memorial Urgent Care",c(216028.034974204, 862236.260453803),"GATRA"
"66","4149376",0,FALSE,"Sunset Acres",c(214538.687520109, 861458.434239134),"GATRA"
"67","4149378",0,FALSE,"Highland Hills Apartments",c(232991.16054102, 848043.52872002),"GATRA"
"68","4149398",0,FALSE,"Sturdy Memorial Urgent Care",c(216026.743127317, 862218.452251948),"GATRA"
"69","4149399",0,FALSE,"Plainridge Casino",c(216126.433743652, 864707.360779308),"GATRA"
"70","816028",2,FALSE,"Attleboro Transit Center",c(217812.965659071, 854591.096920355),"GATRA"
"71","816030",1,FALSE,"MayFaire Plaza and Stop & Shop",c(211778.04142742, 852685.659556087),"GATRA"
"72","816031",1,FALSE,"Target",c(212268.357832949, 854418.056421043),"GATRA"
"73","816032",0,FALSE,"Bishop Feehan High School",c(216959.029779639, 857085.776736145),"GATRA"
"74","816033",0,FALSE,"South Street and East Washington Street",c(213436.487957841, 857446.416978539),"GATRA"
"75","816034",0,FALSE,"Broadway and Benefit Street",c(210610.271541952, 849212.133888611),"GATRA"
"76","816035",1,FALSE,"Brown Street and Mendon Road",c(210272.69480562, 850572.898036619),"GATRA"
"77","816036",1,FALSE,"Washington Street and Highland Avenue",c(211710.309206782, 852139.945548372),"GATRA"
"78","816037",1,FALSE,"Walmart",c(212471.349239157, 853705.967103238),"GATRA"
"79","816038",0,FALSE,"Stobbs Drive and North Avenue",c(216741.180177404, 856872.006155832),"GATRA"
"80","816039",0,FALSE,"Attleboro High School",c(216469.463325565, 854053.304155977),"GATRA"
"81","816040",0,FALSE,"County Street and Jewell Avenue",c(216612.421626348, 853797.474439186),"GATRA"
"82","816041",0,FALSE,"Route 1 and North Washington Street",c(214142.010410091, 860350.370134654),"GATRA"
"83","816042",0,FALSE,"Plainville Council on Aging (COA)",c(213625.222190586, 861748.420061356),"GATRA"
"84","816043",0,FALSE,"Triboro Plaza",c(216561.54637458, 857777.106051187),"GATRA"
"85","816044",0,FALSE,"Hope Gardens",c(219765.75519363, 853776.075602578),"GATRA"
"86","816045",0,FALSE,"LaSalette Shrine",c(219873.798104711, 853458.719017557),"GATRA"
"87","816047",0,FALSE,"Park Street and Maple Street",c(219587.809687783, 854004.16207043),"GATRA"
"88","816048",0,FALSE,"Attleboro Crossing",c(217733.786140154, 853965.734742676),"GATRA"
"89","816049",0,FALSE,"Knight Avenue and South Main",c(214863.353091121, 850176.536387965),"GATRA"
"90","816050",0,FALSE,"Central Plaza",c(213335.101058619, 848839.35753602),"GATRA"
"91","816051",0,FALSE,"Stop and Shop",c(213852.352990047, 857960.140787363),"GATRA"
"92","816052",0,FALSE,"Circle Court",c(213035.793027803, 859399.146643066),"GATRA"
"93","816053",0,FALSE,"Elm Terrace",c(214583.411676861, 858675.872206973),"GATRA"
"94","816054",1,FALSE,"Emerald Square Mall",c(212518.693129603, 855075.440309328),"GATRA"
"95","816068",0,FALSE,"Trucchis",c(245579.5457279, 849684.776836113),"GATRA"
"96","816069",0,FALSE,"Acorn Hill",c(246380.324698882, 849425.806933129),"GATRA"
"97","816070",0,FALSE,"Middleborough Town Hall",c(248909.286583269, 849184.83470447),"GATRA"
"98","816071",0,FALSE,"Riverview Apartments",c(249302.610388844, 849049.042351187),"GATRA"
"99","816072",0,FALSE,"Nemasket Apartments",c(248538.839080503, 849862.664620064),"GATRA"
"100","816073",0,FALSE,"Hannaford's",c(248727.498106354, 848227.465021116),"GATRA"
"101","816074",0,FALSE,"Wood Street at Middlebury Arms",c(249829.900215023, 847722.854627082),"GATRA"
"102","816075",0,FALSE,"Lakeville MBTA Station",c(248278.791355875, 847708.419825427),"GATRA"
"103","816076",0,FALSE,"Southeast Health Center",c(245322.747429196, 850150.988965653),"GATRA"
"104","816077",0,FALSE,"Norfolk Commuter Rail Station",c(214423.098512027, 874457.328502884),"GATRA"
"105","816078",0,FALSE,"Village Street Post Office",c(208480.583845937, 876632.601502066),"GATRA"
"106","816079",0,FALSE,"Medway Middle School",c(207724.472355562, 877285.263932591),"GATRA"
"107","816084",0,FALSE,"Route 28 and Route 58",c(260310.655203155, 839238.848812857),"GATRA"
"108","816086",0,FALSE,"Mill Pond",c(264431.715012634, 835512.586982589),"GATRA"
"109","816087",0,FALSE,"Cranberry Plaza",c(269495.726450767, 834542.726972491),"GATRA"
"110","816088",0,FALSE,"Wagner Way - Buzzards Bay",c(274917.188615394, 833808.628588232),"GATRA"
"111","816090",0,FALSE,"Onset Village",c(269930.927089041, 832788.143603185),"GATRA"
"112","816091",0,FALSE,"Onset Pier",c(269969.837472395, 832740.669478674),"GATRA"
"113","816092",0,FALSE,"Wareham Center",c(265327.753087491, 834425.615378478),"GATRA"
"114","816093",0,FALSE,"Swifts Beach Road and Grant Street",c(264786.002487886, 832738.202430927),"GATRA"
"115","816094",0,FALSE,"Cromeset",c(263628.78492112, 833648.876359917),"GATRA"
"116","816095",0,FALSE,"Agawam Village",c(266076.819784974, 834545.489952103),"GATRA"
"117","816096",0,FALSE,"7-Eleven (East Wareham)",c(271490.613049967, 837765.776276715),"GATRA"
"118","816098",0,FALSE,"Kingston Collection",c(265051.318853331, 857931.49985175),"GATRA"
"119","816099",0,FALSE,"Plymouth Public Library",c(269855.613530035, 855077.929688729),"GATRA"
"120","816100",0,FALSE,"BID Hospital",c(270844.259330064, 854988.327059733),"GATRA"
"121","816101",0,FALSE,"Exit 5 P&B Bus Center",c(269462.007027507, 854292.619369091),"GATRA"
"122","816103",0,FALSE,"Shops at 5",c(270150.168794621, 853443.769207955),"GATRA"
"123","816104",0,FALSE,"Long Pond Medical Center",c(269942.134684419, 853184.992322878),"GATRA"
"124","816105",0,FALSE,"Plimouth Plantation",c(272435.409297504, 854543.755357396),"GATRA"
"125","816106",0,FALSE,"Manomet Stop and Shop",c(278206.464359602, 852126.099278964),"GATRA"
"126","816107",0,FALSE,"Indian Brook School",c(279670.520052421, 849250.769579051),"GATRA"
"127","816108",0,FALSE,"Cedarville Bruno's Corner",c(278734.205600581, 841297.868565078),"GATRA"
"128","816110",0,FALSE,"Gellar's",c(277107.937966335, 853082.980453347),"GATRA"
"129","816111",0,FALSE,"Woodcrest Apartments",c(276612.932788541, 850824.028056795),"GATRA"
"130","816112",0,FALSE,"White Horse Beach",c(278434.025108527, 853551.879417095),"GATRA"
"131","816113",0,FALSE,"Cordage Park",c(267150.007791352, 859194.603661117),"GATRA"
"132","816114",0,FALSE,"Walmart",c(264857.254300186, 856362.292729139),"GATRA"
"133","816115",0,FALSE,"Industrial Park",c(266303.617588459, 856857.047372731),"GATRA"
"134","816116",0,FALSE,"Market Basket",c(265205.789358675, 854964.155198639),"GATRA"
"135","816117",0,FALSE,"Algonquin Heights Apartments",c(267329.628008833, 856249.076861942),"GATRA"
"136","816118",0,FALSE,"Plymouth Center",c(268961.885467698, 856968.334634563),"GATRA"
"137","816120",0,FALSE,"Kingston Train",c(264467.357096592, 858857.175655124),"GATRA"
"138","816122",0,FALSE,"Island Creek Village",c(264223.091108345, 863298.712930918),"GATRA"
"139","816123",0,FALSE,"Halls Corner Foodie's",c(267531.077294859, 864180.442835428),"GATRA"
"140","816124",0,FALSE,"Duxbury Library",c(267621.20838527, 866550.283349278),"GATRA"
"141","816125",0,FALSE,"Millbrook Motors",c(266984.813639157, 867864.55742446),"GATRA"
"142","816126",0,FALSE,"Marshfield Senior Center",c(267976.208548702, 870079.106367906),"GATRA"
"143","816127",0,FALSE,"Beach Street Green Harbor General Store",c(270282.982951797, 870394.524184182),"GATRA"
"144","816128",0,FALSE,"Brant Rock",c(270582.15068113, 871580.320724221),"GATRA"
"145","816129",0,FALSE,"Winslow Apartments",c(267096.245204247, 871907.689881405),"GATRA"
"146","816133",0,FALSE,"Stop and Shop/Kohl's",c(260199.897069112, 873120.152950695),"GATRA"
"147","816134",0,FALSE,"Taunton High School",c(235628.365280324, 850136.527024991),"GATRA"
"148","816135",0,FALSE,"Ingell Street and Weir Street",c(234128.777323103, 848615.813402247),"GATRA"
"149","816137",0,FALSE,"Oak Street and Kilmer Avenue",c(232699.455001996, 849991.22544208),"GATRA"
"150","816139",0,FALSE,"Downtown Taunton (Cohannet St & Rte. 44)",c(233681.800305116, 850194.647746642),"GATRA"
"151","816143",0,FALSE,"Thomas Apartments School Street",c(234128.030906284, 851061.783195924),"GATRA"
"152","816144",0,FALSE,"Social Security Office",c(235306.330271456, 850562.433206007),"GATRA"
"153","816145",0,FALSE,"Shaw's (Rear)",c(236932.474058904, 850907.276117913),"GATRA"
"154","816146",0,FALSE,"Pinehill Estates",c(239317.713828108, 849738.334390369),"GATRA"
"155","816147",0,FALSE,"Stop and Shop (Rear)",c(236297.653238642, 850810.2038689),"GATRA"
"156","816152",0,FALSE,"Washington Street and Bay Street",c(233206.66342762, 853193.320420404),"GATRA"
"157","816156",2,FALSE,"Bloom Bus Terminal (Taunton)",c(233111.087614136, 850157.522993196),"GATRA"
"158","816157",0,FALSE,"Bristol Commons",c(231803.624292938, 849873.035338585),"GATRA"
"159","816158",1,FALSE,"Walmart",c(238734.914574277, 850472.053800748),"GATRA"
"160","816159",0,FALSE,"Plain Street and Hart Street",c(234757.815362416, 848039.535125223),"GATRA"
"161","816160",0,FALSE,"Richard DeWert Terrace",c(232141.837498168, 849276.82331298),"GATRA"
"162","816164",0,FALSE,"Hart's Four Corners",c(235972.165158008, 848322.73243612),"GATRA"
"163","816165",1,FALSE,"Target",c(235813.368519853, 847596.072614811),"GATRA"
"164","816167",1,FALSE,"Downtown Courthouse",c(233713.42171524, 850300.113713762),"GATRA"
"165","816168",0,FALSE,"School Street and Winter Street",c(234595.354892914, 851558.666136543),"GATRA"
"166","816170",0,FALSE,"Presbey Court",c(233592.786688429, 848764.078298699),"GATRA"
"167","816171",0,FALSE,"Morton Hospital",c(233671.281991471, 850672.098274636),"GATRA"
"168","816173",0,FALSE,"1380 Bay Street",c(231903.446953423, 855179.427541906),"GATRA"
"169","816174",0,FALSE,"Northwoods Medical Center",c(231689.006302634, 856601.978228824),"GATRA"
"170","816175",0,FALSE,"Myles Standish Industrial Park",c(230473.033804586, 854715.592706561),"GATRA"
"171","816176",0,FALSE,"Tremont Street and Norton Avenue",c(231106.259042746, 851251.908697607),"GATRA"
"172","816177",0,FALSE,"Norton Post Office",c(225932.697398343, 857393.780638649),"GATRA"
"173","816178",0,FALSE,"Chartley Corners",c(222614.385135681, 855619.70590785),"GATRA"
"174","816179",0,FALSE,"South Middleborough",c(255267.5511328, 842213.703324632),"GATRA"
"175","816180",1,FALSE,"Union Street",c(218113.861589107, 854846.918351682),"GATRA"
"176","816182",0,FALSE,"Fuller Hospital",c(211618.264362332, 852656.869346355),"GATRA"
"177","816183",0,FALSE,"Sturdy Hospital",c(218511.175746145, 854579.824715041),"GATRA"
"178","816185",0,FALSE,"Bristol Community College",c(218737.747257865, 855370.719894075),"GATRA"
"179","816188",0,FALSE,"Post Office - Plymouth",c(269306.946980502, 856492.299258331),"GATRA"
"180","816200",0,FALSE,"Walmart Supercenter",c(262668.858951817, 836848.187579626),"GATRA"
"181","816201",0,FALSE,"Senior Center",c(270195.820048822, 855252.495479633),"GATRA"
"182","816488",0,FALSE,"Whittenton 3 Corners",c(233341.218286126, 852584.502732221),"GATRA"
"183","816914",0,FALSE,"Park Street and Main Street",c(217884.205684943, 854959.642813305),"GATRA"
"184","816915",0,FALSE,"Park Street and Main Street",c(217836.925680309, 854963.418634048),"GATRA"
"185","816918",0,FALSE,"Thatcher Street and Maple Terrace",c(216405.166345889, 853738.137002714),"GATRA"
"186","816919",1,FALSE,"Washington Street and Horton Avenue",c(211483.770634048, 851520.158083504),"GATRA"
"187","816920",1,FALSE,"Washington Street and Brown Street",c(211327.489170472, 851145.225397419),"GATRA"
"188","816921",1,FALSE,"Washington Street and Bacon Street",c(210758.40916574, 849586.745563749),"GATRA"
"189","816922",1,FALSE,"Brown Street and Adamsdale Avenue",c(210903.820616011, 850994.512152033),"GATRA"
"190","816923",1,FALSE,"Brown Street and Robinson Avenue",c(210693.293370516, 850914.499907906),"GATRA"
"191","816924",0,FALSE,"Mendon Street and Harding Avenue",c(210435.671555593, 850420.507556436),"GATRA"
"192","816925",1,FALSE,"Mendon Street and Meunier Avenue",c(210481.452711962, 850351.185911749),"GATRA"
"193","816926",1,FALSE,"Mendon Road and Robinson Avenue",c(210820.62032128, 850119.523094673),"GATRA"
"194","816927",0,FALSE,"Washington Street and Orr Street",c(211416.748501051, 851246.084144454),"GATRA"
"195","816928",0,FALSE,"S Main Street and Clarence Street",c(217824.458172938, 853791.722114096),"GATRA"
"196","816929",0,FALSE,"S Main Street and Camp Street",c(216697.461942415, 852211.33318871),"GATRA"
"197","816930",0,FALSE,"S Main Street - Dodgeville",c(216797.20791367, 852302.365214322),"GATRA"
"198","816933",0,FALSE,"Commonwealth Avenue and Stanley Street",c(215955.154814286, 857684.371263009),"GATRA"
"199","816934",0,FALSE,"Commonwealth Ave and Towne Street",c(215506.40048065, 857840.807045683),"GATRA"
"200","816935",0,FALSE,"Elm Street and Union Street",c(214906.511940814, 858276.123795218),"GATRA"
"201","816936",0,FALSE,"Elm Street and Elm Terrace",c(214464.510593245, 858597.194093823),"GATRA"
"202","816947",0,FALSE,"Short Street and Norton Ave",c(228550.637032656, 853657.662787821),"GATRA"
"203","816948",0,FALSE,"Tremont Street and Oak Street",c(233126.803343658, 850365.005620089),"GATRA"
"204","816949",0,FALSE,"Tremont Street and Shores Street",c(232735.64453653, 850598.946372258),"GATRA"
"205","816950",0,FALSE,"West Main Street and Scott Drive",c(225687.960208462, 857221.838892607),"GATRA"
"206","816951",0,FALSE,"West Main Street and Scott Drive",c(225699.419954095, 857261.865857629),"GATRA"
"207","816953",0,FALSE,"West Main Street & David Street",c(224809.268444337, 856752.206001423),"GATRA"
"208","816954",0,FALSE,"Short Street and Norton Ave",c(228529.90386473, 853649.606524298),"GATRA"
"209","816955",0,FALSE,"West Main Street & David Street",c(224811.634594021, 856786.64607751),"GATRA"
"210","816965",1,FALSE,"Pleasant Street and Perry Avenue",c(218895.531694944, 855697.647796106),"GATRA"
"211","816966",1,FALSE,"Bank of America and Pleasant Street",c(219020.485793983, 855787.949344056),"GATRA"
"212","816967",1,FALSE,"Old Colony Road and Crowe Farm Lane",c(221841.25891796, 855741.67431538),"GATRA"
"213","816974",0,FALSE,"Pleasant Street and Haggerty Hwy",c(219035.650035213, 855814.495857329),"GATRA"
"214","816978",0,FALSE,"Old Colony Road and Pleasant Street",c(221382.280934106, 855944.413848943),"GATRA"
"215","816979",1,FALSE,"Old Colony Road and Pleasant Street",c(221373.544702315, 855923.596250108),"GATRA"
"216","816987",0,FALSE,"North Attleboro Center",c(213995.771423861, 859063.904533245),"GATRA"
"217","818214",0,FALSE,"South Street and East Washington Street",c(213450.040237184, 857429.188139136),"GATRA"
"218","818215",0,FALSE,"Stobbs Drive and North Avenue",c(216730.379345188, 856861.805534744),"GATRA"
"219","818701",0,FALSE,"Brown Street and Mendon Road",c(210248.049111585, 850613.505051396),"GATRA"
"220","818702",0,FALSE,"Washington Street and Highland Street",c(211732.774453006, 852144.194508739),"GATRA"
"221","818703",0,FALSE,"272 County Street",c(216674.531836557, 853830.515090745),"GATRA"
"222","818704",0,FALSE,"Newport Avenue and Highland Avenue",c(211885.788167665, 852222.850414792),"GATRA"
"223","818736",0,FALSE,"Route 1 and N Washington Street",c(214133.451989071, 860351.460092888),"GATRA"
"224","818737",0,FALSE,"Hope Gardens",c(219784.524312911, 853784.290314234),"GATRA"
"225","818738",0,FALSE,"LaSalette Shrine",c(219883.039883395, 853459.308389527),"GATRA"
"226","818739",0,FALSE,"Attleboro Crossing",c(217743.033759868, 853969.912312946),"GATRA"
"227","818740",0,FALSE,"Knight Avenue and South Main",c(214868.006386519, 850164.709232875),"GATRA"
"228","818741",0,FALSE,"Tremont Street and Norton Avenue",c(231105.624751373, 851245.563534478),"GATRA"
"229","818742",0,FALSE,"Norton Post Office",c(225920.468168314, 857390.852824549),"GATRA"
"230","818743",1,FALSE,"Chartley Corners",c(222615.001623694, 855606.567335631),"GATRA"
"231","818744",0,FALSE,"Bristol Community College",c(218746.889570334, 855361.656992241),"GATRA"
"232","818746",0,FALSE,"Oak Street and Kilmer Avenue",c(232696.034418379, 849978.393912699),"GATRA"
"233","818747",0,FALSE,"Bristol Commons",c(231809.339779197, 849867.506305853),"GATRA"
"234","818754",0,FALSE,"Washington Street and Bay Street",c(233199.308036482, 853184.276910511),"GATRA"
"235","818756",0,FALSE,"Hart's Four Corners",c(235962.761668358, 848319.385875326),"GATRA"
"236","818758",0,FALSE,"1380 Bay Street",c(231895.652700834, 855183.998194368),"GATRA"
"237","818759",0,FALSE,"Morton Hospital",c(233680.186885375, 850696.735521616),"GATRA"
"238","818761",0,FALSE,"Whittenton 3 Corners",c(233331.532619005, 852578.722180013),"GATRA"
"239","818762",0,FALSE,"Thomas Apartments School Street",c(234119.283169267, 851069.433886592),"GATRA"
"240","818763",0,FALSE,"Social Security Office",c(235298.881806868, 850573.846999378),"GATRA"
"241","818764",0,FALSE,"Shaw's (Rear)",c(236931.477214781, 850918.523299004),"GATRA"
"242","818766",0,FALSE,"School Street and Winter Street",c(234585.518279125, 851566.366936728),"GATRA"
"243","818767",0,FALSE,"Ingell Street and Weir Street",c(234134.528508094, 848603.833628265),"GATRA"
"244","818769",0,FALSE,"Plain Street and Hart Street",c(234750.528497884, 848050.889952968),"GATRA"
"245","819319",0,FALSE,"Millbrook Motors",c(266992.035053122, 867861.832520851),"GATRA"
"246","819322",0,FALSE,"Brant Rock",c(270590.482084234, 871567.040897828),"GATRA"
"247","819659",0,FALSE,"Route 28 and Route 58",c(260296.682691276, 839233.075002624),"GATRA"
"248","819660",0,FALSE,"Wareham Crossing",c(262961.764853018, 836783.61978592),"GATRA"
"249","819661",0,FALSE,"Mill Pond",c(264440.274415264, 835500.399039875),"GATRA"
"250","819663",0,FALSE,"Ellisville Harbor State Park",c(279583.361371345, 844295.415902474),"GATRA"
"251","819664",0,FALSE,"Village Street Post Office",c(208482.057807817, 876648.690812341),"GATRA"
"252","819915",0,FALSE,"Gellar's",c(277110.492326797, 853106.878469962),"GATRA"
"253","819916",0,FALSE,"White Horse Beach",c(278441.490679485, 853561.593404107),"GATRA"
"254","819917",0,FALSE,"Post Office - Plymouth",c(269330.011784241, 856491.646917377),"GATRA"
"255","819918",0,FALSE,"Wareham Center",c(265339.47421733, 834433.513265877),"GATRA"
"256","819919",0,FALSE,"Onset Village",c(269902.086737387, 832807.056266689),"GATRA"
"257","819920",0,FALSE,"Agawam Village",c(266071.346515641, 834558.328674021),"GATRA"
"258","819921",0,FALSE,"Wagner Way - Buzzards Bay",c(274918.329487517, 833826.094066407),"GATRA"
"259","819927",0,FALSE,"Acorn Hill",c(246366.945323573, 849417.810063857),"GATRA"
"260","835711",0,FALSE,"Harbor CVS",c(264044.02865262, 882983.571496117),"GATRA"
"261","835712",0,FALSE,"Village Market",c(263891.382200137, 882861.529515848),"GATRA"
"262","835713",0,FALSE,"Widow's Walk Golf Course",c(263079.44913138, 880999.014616108),"GATRA"
"263","835714",0,FALSE,"Greenbush MBTA",c(262260.702200538, 881203.758232586),"GATRA"
"264","835715",0,FALSE,"Town Hall",c(260434.427219033, 883238.791408014),"GATRA"
"265","835716",0,FALSE,"Central Park",c(261495.569618043, 883731.510576434),"GATRA"
"266","835717",0,FALSE,"Wheeler Park",c(262946.406275487, 882290.098612055),"GATRA"
"267","835718",0,FALSE,"Senior Center",c(263708.785934009, 882869.739567448),"GATRA"
