"","stop_id","passing_values","frequent_stop","stop_name","geometry","RTA"
"1","2597088",0,FALSE,"Bridge St & Livingstone Ave",c(249787.475197983, 922360.360904559),"CATA"
"2","2597090",0,FALSE,"Cabot St - Ellis Square YMCA",c(251087.635785417, 922259.851554348),"CATA"
"3","2597091",0,FALSE,"Montserrat Station",c(251818.868939762, 923673.623021494),"CATA"
"4","2729983",0,FALSE,"650 Washington St",c(267764.498407681, 933386.468538732),"CATA"
"5","2729984",0,FALSE,"Washington St & Munsey Ln",c(269206.241621108, 936750.97992388),"CATA"
"6","2729985",0,FALSE,"Flanagan Square",c(269233.150938536, 929751.262659377),"CATA"
"7","2729986",0,FALSE,"Rogers St - Dunkin' Donuts",c(269026.645669079, 929559.817987358),"CATA"
"8","2729987",0,FALSE,"South & Frank St",c(272890.793761501, 931994.286818949),"CATA"
"9","2729988",0,FALSE,"Ravenswood Park",c(265754.299347082, 927060.407318102),"CATA"
"10","2729989",0,FALSE,"Western Ave & Stage Fort Park",c(267443.62678628, 928993.885151525),"CATA"
"11","2729990",0,FALSE,"Western Ave & Centennial Ave",c(267873.176093816, 929168.41571141),"CATA"
"12","2729993",0,FALSE,"Maplewood Ave & Prospect St St",c(268562.772175138, 929789.585227895),"CATA"
"13","2754935",0,FALSE,"Bass Ave & E Main St",c(269835.214388527, 929970.857395029),"CATA"
"14","2754936",0,FALSE,"Eastern Ave @ Witham St.",c(270765.495748693, 931321.140022928),"CATA"
"15","2754937",0,FALSE,"Essex Ave & Gibbs Hill Dr",c(266128.46730007, 929609.084398464),"CATA"
"16","3460636",0,FALSE,"NorthShore Education Consortium",c(250999.433773062, 924500.485270592),"CATA"
"17","3460638",0,FALSE,"Whole Foods Shopping",c(250968.791112667, 924912.006523987),"CATA"
"18","3460639",0,FALSE,"133 Brimbal Ave Dialysis",c(251125.787441375, 925042.037931119),"CATA"
"19","3460640",0,FALSE,"128 Cycles",c(251290.887812147, 924740.053376817),"CATA"
"20","3460642",0,FALSE,"Henry's Food Mart",c(249787.420998857, 924752.988945128),"CATA"
"21","3460643",0,FALSE,"Trask Ln & Folly Hill",c(248648.68268259, 924391.775206479),"CATA"
"22","3460645",0,FALSE,"Giles Ave",c(248988.972600442, 922671.582766286),"CATA"
"23","3460646",0,FALSE,"McPherson Dr & Elliott St",c(250443.956044325, 923006.364214192),"CATA"
"24","3460647",0,FALSE,"Beverly Library",c(251209.347150261, 922482.617456743),"CATA"
"25","3460648",0,FALSE,"Market Basket",c(246587.01696141, 922419.174733799),"CATA"
"26","3460649",0,FALSE,"Cabot Plaza",c(250732.442936524, 923342.886439844),"CATA"
"27","3461010",0,FALSE,"Bass River Tennis Club",c(250577.793236378, 924839.215831632),"CATA"
"28","3461011",0,FALSE,"Futures Behavioral Therapy",c(250815.342282298, 924372.25503112),"CATA"
"29","4149238",0,FALSE,"Shalin Liu Performance Center",c(272237.86714088, 934564.306382041),"CATA"
"30","798299",0,FALSE,"Addison Gilbert Hospital",c(267270.449156841, 930918.736890669),"CATA"
"31","798300",0,FALSE,"Annisquam Village Church",c(267958.489672947, 934881.384709005),"CATA"
"32","798301",0,FALSE,"Annisquam Wooden Bridge",c(267731.636635977, 934102.900649112),"CATA"
"33","798302",0,FALSE,"Atlantic St & Beach Rds",c(270725.432957801, 929903.78421049),"CATA"
"34","798303",0,FALSE,"Atlantic St & Grapevine Rds",c(270539.265732667, 927779.149974005),"CATA"
"35","798304",0,FALSE,"Atlantic St & High Popples Rds",c(270885.507045562, 928098.330298445),"CATA"
"36","798305",0,FALSE,"Atlantic St & Moorland Rds",c(271058.477797771, 929209.947003634),"CATA"
"37","798306",0,FALSE,"Atlantic St & Brooks Rd",c(265441.715207516, 932196.698629799),"CATA"
"38","798307",0,FALSE,"Atlantic St & Castle View Dr",c(265757.786147361, 933140.639472296),"CATA"
"39","798309",0,FALSE,"Bass Ave & Hartz St",c(270071.175203865, 929953.991458771),"CATA"
"40","798310",0,FALSE,"Bay View Fire Station",c(268210.100525173, 935272.965640301),"CATA"
"41","798311",0,FALSE,"Beach & Moorland Rds",c(270298.00518279, 929478.058202476),"CATA"
"42","798312",0,FALSE,"Blackburn Industrial Park",c(269317.279140336, 931094.197146675),"CATA"
"43","798314",0,FALSE,"Cape Hedge Inn",c(273752.652888554, 932671.935206424),"CATA"
"44","798318",0,FALSE,"Cherry St & Reynard St",c(268080.235828729, 931530.94304454),"CATA"
"45","798319",0,FALSE,"Cherry St & Cherry Hill Rd",c(268048.752493954, 932249.434263219),"CATA"
"46","798320",0,FALSE,"Cherry St & Finch Ln",c(268176.992341796, 932010.505858048),"CATA"
"47","798321",0,FALSE,"Concord St & Atlantic St",c(264967.032386309, 931729.396767574),"CATA"
"48","798322",0,FALSE,"Concord St & Becker Cir",c(264805.610688968, 931115.774268337),"CATA"
"49","798323",0,FALSE,"Curtis - Clark Building",c(268924.414776678, 929812.049929944),"CATA"
"50","798324",0,FALSE,"Destino's",c(269133.046211069, 929920.654016083),"CATA"
"51","798325",0,FALSE,"Dock Square",c(272364.900940965, 934596.332534343),"CATA"
"52","798326",1,FALSE,"Dunkin' Donuts",c(268985.525390921, 929569.054840488),"CATA"
"53","798327",0,FALSE,"Rogers St - Dunkin' Donuts",c(269015.946393839, 929575.401392589),"CATA"
"54","798328",0,FALSE,"Thatcher Rd & Barn Ln at Vista Hotel",c(270654.196441138, 930510.060393373),"CATA"
"55","798329",1,FALSE,"East Gloucester Square",c(269624.919882325, 928904.83936487),"CATA"
"56","798330",0,FALSE,"East Main St & Haskell St",c(269924.641284671, 929691.498046786),"CATA"
"57","798331",0,FALSE,"East Main St & Rocky Neck Ave",c(269375.020938198, 928444.336436186),"CATA"
"58","798332",0,FALSE,"East Main St & Bass Ave",c(269794.220048871, 929967.876040593),"CATA"
"59","798333",0,FALSE,"Eastern Ave & Harrison Ave",c(269962.786215604, 930298.885259297),"CATA"
"60","798334",0,FALSE,"Eastern Ave & Hartz St",c(270010.391149527, 930319.957468398),"CATA"
"61","798335",0,FALSE,"Eastern Ave & Webster St",c(269744.737319289, 930180.175240649),"CATA"
"62","798336",0,FALSE,"Eastern Point Rd & Grapevine Rd",c(269345.70011557, 928173.310314084),"CATA"
"63","798337",0,FALSE,"Essex Ave & Fernwood Lake Ave",c(265835.766009043, 929748.317260041),"CATA"
"64","798338",0,FALSE,"Essex Ave & Magnolia Ave",c(264994.807218604, 929206.521671933),"CATA"
"65","798339",0,FALSE,"Essex Ave & Concord St",c(264702.38070496, 929976.214418014),"CATA"
"66","798340",0,FALSE,"Essex Ave & Lawrence Mountain Rd",c(263209.159957266, 930557.721539627),"CATA"
"67","798341",0,FALSE,"Essex Ave & Edgewood Rd",c(266540.67149791, 929565.210716293),"CATA"
"68","798342",0,FALSE,"Essex Ave & Fernald St",c(263474.458710577, 930448.667543921),"CATA"
"69","798343",0,FALSE,"Essex Ave & Forest Ln",c(262617.899502816, 930646.20882843),"CATA"
"70","798344",0,FALSE,"Essex Ave & New Way Ln",c(264430.003444943, 929952.800980519),"CATA"
"71","798345",0,FALSE,"Essex Ave & Woodman St",c(261879.826513424, 930889.237112857),"CATA"
"72","798346",0,FALSE,"Essex Ave & Sumner St",c(262669.907640294, 930635.743298736),"CATA"
"73","798347",0,FALSE,"Essex Town Line",c(261493.88565981, 931172.25503386),"CATA"
"74","798349",0,FALSE,"Gee Ave & Cherry St",c(268079.405078578, 932465.914170349),"CATA"
"75","798350",0,FALSE,"Gloucester Ave & Maplewood Ave",c(268137.960950728, 930591.640198398),"CATA"
"76","798351",0,FALSE,"Gloucester Crossing",c(268765.87915506, 930680.944910538),"CATA"
"77","798352",0,FALSE,"Gloucester High School",c(267673.949194127, 929545.184128766),"CATA"
"78","798353",0,FALSE,"Commuter Rail Station - Gloucester",c(268297.816309157, 929888.902521451),"CATA"
"79","798354",0,FALSE,"Good Harbor Beach",c(271208.971185068, 930583.671432016),"CATA"
"80","798355",0,FALSE,"Hammond Castle",c(266232.302047607, 926438.283193685),"CATA"
"81","798356",0,FALSE,"Heights at Cape Ann",c(266567.251108086, 929583.037804712),"CATA"
"82","798358",0,FALSE,"Lanesville Post Office",c(268950.307881933, 936681.550842779),"CATA"
"83","798359",0,FALSE,"Langsford St & Andrews St",c(269074.717613486, 936836.187872548),"CATA"
"84","798360",0,FALSE,"Langsford St & Norseman Ave",c(269467.385912584, 936971.37050866),"CATA"
"85","798361",0,FALSE,"Langsford St & Rockwood Ln",c(269743.360377521, 937093.09453957),"CATA"
"86","798362",0,FALSE,"Lexington Ave & Flume Rd",c(264666.066214476, 925352.610815703),"CATA"
"87","798364",0,FALSE,"Lincoln Park",c(267776.439425483, 929766.555129744),"CATA"
"88","798365",0,FALSE,"Long Beach Dairy Maid",c(271772.70341604, 930892.639942173),"CATA"
"89","798366",0,FALSE,"Magnolia Ave & Carrie Ln",c(264810.210062245, 928636.398687523),"CATA"
"90","798367",0,FALSE,"Magnolia Ave & Westbrook Ln",c(264082.754395773, 926897.93396417),"CATA"
"91","798368",0,FALSE,"Magnolia Square",c(264472.361813241, 925482.441246179),"CATA"
"92","798369",0,FALSE,"Main St & Pleasant St",c(268794.221858293, 929486.898360733),"CATA"
"93","798370",0,FALSE,"Maplewood Ave & Cleveland St",c(268316.922190953, 930136.753252569),"CATA"
"94","798372",0,FALSE,"Sheedy Park",c(268662.899001386, 929881.894680944),"CATA"
"95","798373",0,FALSE,"McDonalds",c(268442.55535043, 930012.81403029),"CATA"
"96","798374",0,FALSE,"McPherson Park",c(268392.470110747, 929688.909836669),"CATA"
"97","798375",0,FALSE,"Millpond Medical Building",c(267434.506295648, 931172.434367304),"CATA"
"98","798376",0,FALSE,"Niles Beach",c(269452.826021703, 927720.817715765),"CATA"
"99","798380",0,FALSE,"Pigeon Cove Post Office",c(271758.767847069, 936582.615655022),"CATA"
"100","798381",0,FALSE,"Poplar Park",c(268111.888321376, 930771.15179848),"CATA"
"101","798382",0,FALSE,"Post Office - City Hall",c(268652.439783571, 929614.947525227),"CATA"
"102","798386",0,FALSE,"Ravenswood Park",c(266560.941647282, 927417.844667197),"CATA"
"103","798387",0,FALSE,"Rockport Market",c(272288.159118224, 934415.332700685),"CATA"
"104","798388",0,FALSE,"Train Station - Rockport",c(271657.900708552, 934335.538111647),"CATA"
"105","798389",0,FALSE,"Sayward St & Bass Ave",c(270121.169728745, 929884.183495162),"CATA"
"106","798390",0,FALSE,"Senior Center - Dunkin' Donuts",c(268981.147663871, 929557.836078666),"CATA"
"107","798393",0,FALSE,"South St & Eden Rd",c(273915.085625122, 933424.349898217),"CATA"
"108","798394",0,FALSE,"South St & Jerdens Ln",c(273189.859579184, 934177.700287897),"CATA"
"109","798395",0,FALSE,"Western Ave & Stage Fort Park",c(267437.417392921, 928976.045814742),"CATA"
"110","798398",0,FALSE,"Thatcher Rd & Marina Dr",c(270588.353686514, 930343.693917637),"CATA"
"111","798399",0,FALSE,"Thatcher Rd & Witham St",c(271429.069905169, 930688.784397567),"CATA"
"112","798400",0,FALSE,"Toad Hall Bookstore",c(272203.68921327, 934564.923611441),"CATA"
"113","798401",0,FALSE,"Washington St & Colburn St",c(268309.522113386, 935616.260622197),"CATA"
"114","798402",0,FALSE,"Washington St & Dennison St",c(267870.178476742, 933734.743798205),"CATA"
"115","798404",0,FALSE,"Washington St & Hodgkins St",c(267463.04769243, 931696.287283272),"CATA"
"116","798405",0,FALSE,"Washington St & Poplar St",c(267535.349412607, 930609.926581261),"CATA"
"117","798407",0,FALSE,"Washington St & Revere St",c(268020.320860837, 934958.136580765),"CATA"
"118","798408",0,FALSE,"Washington St & Stanwood St",c(267894.426365352, 932592.792244978),"CATA"
"119","798409",0,FALSE,"Washington St & Wheeler St",c(267272.265268403, 931194.001417498),"CATA"
"120","798410",0,FALSE,"Washington St & Woodbury St",c(270077.148145104, 937248.206647176),"CATA"
"121","798414",0,FALSE,"Train Station - West Gloucester",c(265227.336066823, 929306.96092827),"CATA"
"122","798415",0,FALSE,"Western Ave & Centennial Ave",c(267890.213158359, 929175.929405418),"CATA"
"123","798416",0,FALSE,"Western Ave & Hesperus Ave",c(266510.429856617, 927360.076213498),"CATA"
"124","798417",0,FALSE,"Western Ave & Magnolia Ave",c(264289.515600244, 926373.97245043),"CATA"
"125","798421",0,FALSE,"Willow Rest",c(267995.442365266, 932714.806369544),"CATA"
"126","801975",0,FALSE,"Atlantic St & Beach Rds",c(270749.306486596, 929893.280918698),"CATA"
"127","801976",0,FALSE,"Atlantic St & Grapevine Rds",c(270545.716831511, 927761.229635109),"CATA"
"128","801977",0,FALSE,"Atlantic St & High Popples Rds",c(270893.381608107, 928092.266804918),"CATA"
"129","801978",0,FALSE,"Thatcher Rd & Barn Ln at Vista Hotel",c(270661.781946563, 930499.838940065),"CATA"
"130","801979",0,FALSE,"East Gloucester Square",c(269619.456956054, 928912.028053394),"CATA"
"131","801980",0,FALSE,"Eastern Ave & Webster St",c(269755.490309988, 930172.272845984),"CATA"
"132","801981",0,FALSE,"Eastern Point Rd & Grapevine Rd",c(269334.422773867, 928167.608588452),"CATA"
"133","801982",0,FALSE,"Thatcher Rd & Marina Dr",c(270603.512481287, 930357.004358411),"CATA"
"134","801983",0,FALSE,"Thatcher Rd & Witham St",c(271428.553099194, 930674.635108138),"CATA"
"135","801985",0,FALSE,"Cape Hedge Inn",c(273755.24084458, 932653.939047135),"CATA"
"136","801986",0,FALSE,"Stop & Shop - CVS",c(270351.003416207, 930133.524244111),"CATA"
"137","801990",0,FALSE,"Shaw's Supermarket",c(270532.916387927, 930616.009877154),"CATA"
"138","802493",0,FALSE,"Maplewood Ave & Grove St",c(268191.776618205, 930446.336986226),"CATA"
"139","802495",0,FALSE,"Prospect St & Warner St",c(269004.189806319, 929875.546215697),"CATA"
"140","802496",0,FALSE,"Prospect St & Pleasant St",c(268706.698340906, 929753.131077553),"CATA"
"141","802509",0,FALSE,"Addison Gilbert Hospital",c(267282.4930311, 930924.877091473),"CATA"
"142","802510",0,FALSE,"Annisquam Village Church",c(267968.885606864, 934886.749241509),"CATA"
"143","802511",0,FALSE,"Annisquam Wooden Bridge",c(267723.264646259, 934104.574807072),"CATA"
"144","802512",1,FALSE,"Bay View Fire Station",c(268218.844834198, 935271.403462609),"CATA"
"145","802513",0,FALSE,"Cherry St & Reynard St",c(268092.565161091, 931519.120856474),"CATA"
"146","802514",0,FALSE,"Cherry St & Cherry Hill Rd",c(268061.928104099, 932250.817761939),"CATA"
"147","802515",0,FALSE,"Cherry St & Finch Ln",c(268185.971514357, 932018.336356469),"CATA"
"148","802517",0,FALSE,"Lanesville Post Office",c(268953.799920323, 936673.144531989),"CATA"
"149","802518",0,FALSE,"Pigeon Cove Post Office",c(271770.85180483, 936583.284050211),"CATA"
"150","802519",0,FALSE,"Stanwood St & Gee Ave",c(268047.082309741, 932512.190945778),"CATA"
"151","802520",1,FALSE,"Washington St & Dennison St",c(267884.654147043, 933750.004837997),"CATA"
"152","802522",0,FALSE,"Washington St & Wheeler St",c(267291.21334153, 931210.728234249),"CATA"
"153","802523",1,FALSE,"Willow Rest",c(268009.875003945, 932743.375816025),"CATA"
"154","802541",0,FALSE,"Castle Hill Rd",c(266302.856196301, 926650.818501087),"CATA"
"155","802543",0,FALSE,"Hesperus Ave & Newton Rd",c(265188.40303961, 925603.668917991),"CATA"
"156","802544",0,FALSE,"Norman & Lexington Ave",c(264691.213610173, 925512.042804127),"CATA"
"157","802547",0,FALSE,"Western Ave & Ryan Rd",c(264573.162492667, 926732.375419668),"CATA"
"158","807627",0,FALSE,"Eastern Ave & Barn Ln",c(270478.304011274, 930689.553353388),"CATA"
"159","807762",0,FALSE,"East Main St & Rocky Neck Ave",c(269367.169082484, 928450.768446316),"CATA"
"160","807764",0,FALSE,"Atlantic St & Moorland Rds",c(271048.750904444, 929209.437217232),"CATA"
"161","807765",0,FALSE,"Niles Beach",c(269456.451605115, 927732.364739022),"CATA"
"162","807773",0,FALSE,"Good Harbor Beach Footbridge",c(270883.346248029, 930032.535572256),"CATA"
"163","807775",0,FALSE,"Rocky Neck",c(269257.134981774, 928533.651181174),"CATA"
"164","807832",0,FALSE,"Bridge St - Variety Store",c(248508.552040616, 923127.224802021),"CATA"
"165","807834",0,FALSE,"Beverly City Hall",c(251012.373789002, 922098.103569225),"CATA"
"166","807835",0,FALSE,"Cabot St & Elliot St",c(251037.049731243, 922726.790370599),"CATA"
"167","807836",0,FALSE,"Cabot St & Rantoul St St",c(250972.692457019, 923187.759741216),"CATA"
"168","807838",0,FALSE,"Beverly Hospital",c(251336.483751084, 923913.938115473),"CATA"
"169","807841",0,FALSE,"Commuter Rail Station - Beverly",c(250492.25420874, 922034.065321744),"CATA"
"170","807842",0,FALSE,"Rantoul St & Edwards St",c(250510.960704182, 921722.302781056),"CATA"
"171","807843",0,FALSE,"Cabot St & Highland Ave",c(250876.384492537, 921795.162535735),"CATA"
"172","807846",0,FALSE,"Balch St Apartments",c(250188.483611134, 923849.290618681),"CATA"
"173","807847",0,FALSE,"Essex St - Kelleher Apartments",c(252170.586018188, 924028.521187031),"CATA"
"174","807848",0,FALSE,"Turtle Creek Apartments",c(252914.894931918, 924670.329702647),"CATA"
"175","807849",0,FALSE,"YMCA",c(252391.930793524, 924174.276835631),"CATA"
"176","807850",0,FALSE,"Cedar St Apartments",c(251646.032131747, 922982.31869152),"CATA"
"177","807851",0,FALSE,"Council on Aging",c(251398.438789973, 923572.392517658),"CATA"
"178","807852",0,FALSE,"Gloucester Crossing",c(250905.528036381, 923181.855892815),"CATA"
"179","807853",0,FALSE,"Rantoul St & Elliott St",c(250795.806426025, 922888.883018656),"CATA"
"180","807854",0,FALSE,"Cummings Center",c(250348.208107401, 923170.735702581),"CATA"
"181","807855",0,FALSE,"Stop & Shop",c(250431.909732394, 922896.823403619),"CATA"
"182","807857",0,FALSE,"Garden City Apartments",c(250828.543135446, 923412.126508321),"CATA"
"183","807864",0,FALSE,"North Beverly Plaza - Shaw's",c(250185.394023666, 925324.982776203),"CATA"
"184","807884",0,FALSE,"Cabot St & Edwards St",c(250695.886184032, 921609.088926333),"CATA"
"185","807887",0,FALSE,"Elliott St & Cabot St",c(251003.550765129, 922758.015696262),"CATA"
"186","807888",0,FALSE,"Rantoul St & Broadway",c(250582.538044225, 922118.196926367),"CATA"
"187","807891",0,FALSE,"Elliott St & Beckford St",c(250536.905496761, 922948.679290048),"CATA"
"188","807892",0,FALSE,"Herrick St & Sohier Rd",c(250939.165719241, 923790.775995393),"CATA"
"189","807893",0,FALSE,"Elliott St & Bridge St",c(248564.721783245, 923168.011188576),"CATA"
"190","807895",0,FALSE,"Pleasant St & Cabot St",c(250814.982722568, 921711.803174766),"CATA"
"191","815374",0,FALSE,"Good Harbor Beach",c(271216.633538671, 930592.170053234),"CATA"
