"","DOW","stop_id","direction_id","firstArrival_mam","lastArrival_mam","trips","averageHeadway","Percentile90_hw","effectiveHeadway","span_min","span_max","freq_min","span_pass","freq_pass","stop_code","platform_code","stop_name","stop_desc","geometry"
"1","SA","2326132",NA,540,1035,16,33,45,38.6363636363636,480,1110,20,FALSE,FALSE,"","","Scituate Library Community Center","",c(263829.265148207, 883641.870678511)
"2","SA","2326135",NA,560,1010,8,64.2857142857143,75,65,480,1110,20,FALSE,FALSE,"","","North Scituate Plaza","",c(259123.16187899, 885694.706691486)
"3","SA","2326136",NA,562,1012,16,30,69,65,480,1110,20,FALSE,FALSE,"","","Lincoln Park","",c(258640.776661634, 885867.841797836)
"4","SA","2559007",NA,525,1005,5,120,120,120,480,1110,20,FALSE,FALSE,"","","Academy Dr - Buzzard's Bay","",c(273548.152243496, 833145.50133093)
"5","SA","2559008",NA,475,1005,6,106,120,113.396226415094,480,1110,20,FALSE,FALSE,"","","Academy Dr - Buzzard's Bay","",c(273550.166542622, 833161.878563068)
"6","SA","2745403",NA,482,1012,6,106,120,113.396226415094,480,1110,20,FALSE,FALSE,"","","CVS Cranberry Hwy","",c(269512.927544088, 834716.648646193)
"7","SA","816087",NA,502,1032,11,53,78,62.6792452830189,480,1110,20,FALSE,FALSE,"","","Cranberry Plaza","OWL_or_WLT",c(269495.726450767, 834542.726972491)
"8","SA","816091",NA,515,995,5,120,120,120,480,1110,20,FALSE,FALSE,"","","Onset Pier","OWL_or_WLT",c(269969.837472395, 832740.669478674)
"9","SA","816096",NA,492,1022,6,106,120,113.396226415094,480,1110,20,FALSE,FALSE,"","","7-Eleven (East Wareham)","OWL",c(271490.613049967, 837765.776276715)
"10","SA","835711",NA,545,995,8,64.2857142857143,75,65,480,1110,20,FALSE,FALSE,"","","Harbor CVS","",c(264044.02865262, 882983.571496117)
"11","SA","835712",NA,547,997,8,64.2857142857143,75,65,480,1110,20,FALSE,FALSE,"","","Village Market","",c(263891.382200137, 882861.529515848)
"12","SA","835713",NA,550,1000,8,64.2857142857143,75,65,480,1110,20,FALSE,FALSE,"","","Widow's Walk Golf Course","",c(263079.44913138, 880999.014616108)
"13","SA","835714",NA,552,1002,8,64.2857142857143,75,65,480,1110,20,FALSE,FALSE,"","","Greenbush MBTA","",c(262260.702200538, 881203.758232586)
"14","SA","835716",NA,570,1020,8,64.2857142857143,75,65,480,1110,20,FALSE,FALSE,"","","Central Park","",c(261495.569618043, 883731.510576434)
"15","SA","835717",NA,575,1025,8,64.2857142857143,75,65,480,1110,20,FALSE,FALSE,"","","Wheeler Park","",c(262946.406275487, 882290.098612055)
"16","WD","2326132",NA,450,1060,20,32.1052631578947,53,47.6983606557377,420,1140,20,FALSE,FALSE,"","","Scituate Library Community Center","",c(263829.265148207, 883641.870678511)
"17","WD","2326135",NA,478,1036,10,62,70.4,62.6200716845878,420,1140,20,FALSE,FALSE,"","","North Scituate Plaza","",c(259123.16187899, 885694.706691486)
"18","WD","2326136",NA,480,1038,20,29.3684210526316,68.4,62.6200716845878,420,1140,20,FALSE,FALSE,"","","Lincoln Park","",c(258640.776661634, 885867.841797836)
"19","WD","2326309",NA,463,1003,10,60,60,60,420,1140,20,FALSE,FALSE,"","","Indian Brook School","",c(279681.589549326, 849256.217089561)
"20","WD","2332197",NA,369,1126,26,30.28,37,31.8956406869221,420,1140,20,FALSE,FALSE,"","","Hannaford Supermarket","",c(231436.315397661, 848514.942249636)
"21","WD","2332283",NA,330,1167,52,16.4117647058824,57,54.168458781362,420,1140,20,TRUE,FALSE,"","","Market Basket","",c(212218.045001094, 849863.319874297)
"22","WD","2383925",NA,370.523865407005,1090.52386540701,13,60,67.468851227807,60.4648644888593,420,1140,20,FALSE,FALSE,"1129","","Plain Street and East Water Street (Eastbound)","",c(234163.125133063, 848429.606366059)
"23","WD","2383928",NA,375.740906770224,1111.80942224993,26,29.4427406191883,46.9314845202923,37.36358225505,420,1140,20,FALSE,FALSE,"1023","","County Street and Karena Drive","",c(236115.626723672, 847916.712625153)
"24","WD","2383936",NA,480,1034,27,21.3076923076923,46,31.6750902527076,420,1140,20,FALSE,FALSE,"1082","","Shaw's","",c(264129.724093956, 834623.763245776)
"25","WD","2383942",NA,415.979827635512,1142.77665260743,11,72.6796824971913,100.5,84.8953310676729,420,1140,20,TRUE,FALSE,"1074","","Pleasant Street and Peck Street","",c(218394.13023428, 855327.907342421)
"26","WD","2383947",NA,423.464909711186,1154.46490971119,11,73.1,100.5,85.4870041039672,420,1140,20,FALSE,FALSE,"1168","","1008 West Main Street","",c(224977.842851939, 856835.102529242)
"27","WD","2383951",NA,475.606026623566,1090.60602662357,14,47.3076923076923,45,49.6471544715471,420,1140,20,FALSE,FALSE,"1139","","Bay Street and Field Street","",c(231786.72689558, 856311.633897009)
"28","WD","2437317",NA,427,1056,22,29.952380952381,34,30.2241653418124,420,1140,20,FALSE,FALSE,"","","Shaw's (Kingston)","",c(267461.654712228, 855847.004014651)
"29","WD","2484309",NA,495,900,2,405,405,405,420,1140,20,FALSE,FALSE,"","","MAP Academy","",c(265392.470603412, 855708.685823103)
"30","WD","2484310",NA,480,920,2,440,440,440,420,1140,20,FALSE,FALSE,"","","Our Lady of Lourdes","",c(260953.482194791, 848637.179297461)
"31","WD","2559007",NA,525,1065,10,60,60,60,420,1140,20,FALSE,FALSE,"","","Academy Dr - Buzzard's Bay","",c(273548.152243496, 833145.50133093)
"32","WD","2559008",NA,475,1005,10,58.8888888888889,60,59.0566037735849,420,1140,20,FALSE,FALSE,"","","Academy Dr - Buzzard's Bay","",c(273550.166542622, 833161.878563068)
"33","WD","2559120",NA,531,1065,9,66.75,78,72.876404494382,420,1140,20,FALSE,FALSE,"","","Wareham Crossing","",c(262856.323644402, 836465.357416065)
"34","WD","2559121",NA,472,1012,10,60,60,60,420,1140,20,FALSE,FALSE,"","","Cromeset Woods","",c(263600.904657321, 833260.156190572)
"35","WD","2559122",NA,461,1133,23,30.5454545454545,39.9,32.5357142857143,420,1140,20,FALSE,FALSE,"1275","","Kingsbury Plaza","",c(263612.25742768, 862165.094542349)
"36","WD","2559128",NA,370,1048,23,30.8181818181818,46,41.3185840707965,420,1140,20,FALSE,FALSE,"1284","","Webster Square","",c(265579.729010973, 871366.708709793)
"37","WD","2559134",NA,416,1058,22,30.5714285714286,39,34.7757009345794,420,1140,20,FALSE,FALSE,"1286","","Roche Bros.","",c(262830.227245182, 872953.845707614)
"38","WD","2559135",NA,371.614116192622,1080.11505379445,23,32.2045880728105,59.9499062398169,55.1864260604717,420,1140,20,FALSE,FALSE,"1254","","Duxbury Housing Complex","",c(267415.536897678, 864249.605120676)
"39","WD","2559140",NA,413.03165081011,1095.1553998622,12,62.0112499138268,70.382586934491,62.8648526015318,420,1140,20,FALSE,FALSE,"1252","","Tura's Pharmacy","",c(263751.171191523, 861228.56102068)
"40","WD","2559142",NA,459.003785057413,1131.00548111708,12,61.0910632781512,70.001696059663,62.0866778070386,420,1140,20,FALSE,FALSE,"1251","","Tura's Pharmacy","",c(263762.352792071, 861247.322427214)
"41","WD","2559143",NA,387,1062,12,61.3636363636364,70,62.1851851851852,420,1140,20,FALSE,FALSE,"","","Beach Street Green Harbor General Store","",c(270271.892491056, 870395.647219175)
"42","WD","2574366",NA,365,1085,13,60,70,60.8333333333333,420,1140,20,FALSE,FALSE,"","","Main Street and Summer Street (Eastbound)","",c(234096.33147978, 850168.41756934)
"43","WD","2574369",NA,403,1123,14,55.3846153846154,60,57.3277777777778,420,1140,20,FALSE,FALSE,"","","Main Street and Summer Street (Westbound)","",c(234105.458852444, 850180.978182443)
"44","WD","2574377",NA,410,863,2,453,453,453,420,1140,20,FALSE,FALSE,"","","County St & Hart St","",c(235944.430110671, 848386.811778691)
"45","WD","2574382",NA,377,1097,13,60,65,60.2083333333333,420,1140,20,FALSE,FALSE,"","","County St & Mozzone Blvd","",c(236550.321076813, 847359.246254727)
"46","WD","2574390",NA,357.086040599288,1111.20847973171,26,30.164897565297,34.2453775441594,30.7411579007902,420,1140,20,FALSE,FALSE,"","","N Washington St & High St","",c(213894.057523144, 859313.147565856)
"47","WD","2574406",NA,407.628373776549,1127.62837377655,12,65.4545454545453,62.0000000000008,70.011111111111,420,1140,20,FALSE,FALSE,"","","South Ave & Greenfield St","",c(214636.215764143, 853702.308772966)
"48","WD","2574407",NA,408.695244707223,1128.69524470722,12,65.4545454545451,62.0000000000023,70.0111111111109,420,1140,20,FALSE,FALSE,"","","South Ave & Lathrop Rd","",c(215274.983563488, 853751.529553358)
"49","WD","2574408",NA,365.235344641725,1085.23534464173,12,65.4545454545454,63.0247679602562,70.050829006741,420,1140,20,FALSE,FALSE,"","","South Ave & Lathrop Rd","",c(215273.623522587, 853763.272525697)
"50","WD","2574409",NA,366.332959598333,1086.33295959833,12,65.4545454545455,63.0061480390123,70.0502051446248,420,1140,20,FALSE,FALSE,"","","South Ave & Greenfield St","",c(214630.411026323, 853712.491395146)
"51","WD","2575001",NA,379.000661154268,1099.00066115427,10,80,120,90,420,1140,20,FALSE,FALSE,"","","County Rd & Taunton Depot Drive","no stop zone",c(236143.71546151, 847729.969000801)
"52","WD","2577987",NA,347,1127,53,15,33,26.4333333333333,420,1140,20,FALSE,FALSE,"","","North Hub","",c(213873.805180443, 858816.704705711)
"53","WD","2584564",NA,372,908,16,35.7333333333333,55.6,42.8507462686567,420,1140,20,FALSE,FALSE,"","","All American/Rosebrook","",c(263984.273648986, 836254.70455272)
"54","WD","2735457",NA,498,1128,11,63,63,64.2857142857143,420,1140,20,FALSE,FALSE,"","","Staples & ALDI's","",c(237712.03505669, 850605.095526539)
"55","WD","2735461",NA,397.50116272716,1117.50116272716,14,55.3846153846154,60,57.3253351564931,420,1140,20,FALSE,FALSE,"","","Plain Street and East Water Street (Westbound)","",c(234169.863481976, 848448.779010095)
"56","WD","2735477",NA,405,1150,13,62.0833333333333,60,62.8523489932886,420,1140,20,TRUE,FALSE,"","","Colony Ave & Middleboro Ave","",c(239116.732601654, 848157.69995036)
"57","WD","2735478",NA,390,1120,13,60.8333333333333,69,61.2328767123288,420,1140,20,FALSE,FALSE,"","","Colony Ave & Middleboro Ave","",c(239097.237153034, 848145.850371809)
"58","WD","2735497",NA,495,1155,12,60,60,60,420,1140,20,FALSE,FALSE,"","","Hart St & County St","",c(235953.722290917, 848331.571721027)
"59","WD","2735498",NA,385,1115,12,66.3636363636364,70,70.8219178082192,420,1140,20,FALSE,FALSE,"","","Hart St & County St","",c(235969.389525176, 848336.917723948)
"60","WD","2745403",NA,482,1012,10,58.8888888888889,60,59.0566037735849,420,1140,20,FALSE,FALSE,"","","CVS Cranberry Hwy","",c(269512.927544088, 834716.648646193)
"61","WD","2745409",NA,447,447,1,NA,NA,NA,420,1140,20,FALSE,NA,"","","Onset Ave & Depot St.","",c(268480.82774033, 834327.378681426)
"62","WD","2745411",NA,470,930,2,460,460,460,420,1140,20,FALSE,FALSE,"","","Court House (West Wareham)","",c(260481.493842995, 839243.437635547)
"63","WD","2745412",NA,955,955,1,NA,NA,NA,420,1140,20,FALSE,NA,"","","Onset Ave & Depot St.","",c(268474.923887772, 834304.811775017)
"64","WD","2754816",NA,494,1032,8,76.8571428571429,152,146.148698884758,420,1140,20,FALSE,FALSE,"","","Wareham MultiService Center","",c(264618.482755298, 834649.73790035)
"65","WD","2754817",NA,462,1064,8,86,126.4,111.475083056478,420,1140,20,FALSE,FALSE,"6099","","Southcoast Health System","",c(251223.893045166, 822877.369240695)
"66","WD","2754818",NA,475,985,4,170,240,199.411764705882,420,1140,20,FALSE,FALSE,"","","Route 6 at North St. Mattapoisett","",c(257249.583515617, 823953.992184563)
"67","WD","2754819",NA,486,996,4,170,240,199.411764705882,420,1140,20,FALSE,FALSE,"","","Route 6 at Route 105 Marion","",c(260749.620562435, 829696.809482556)
"68","WD","2754821",NA,450,1076,8,89.4285714285714,131.2,123.916932907348,420,1140,20,FALSE,FALSE,"5496","","SRTA New Bedford Terminal","",c(247665.31659527, 820778.656795535)
"69","WD","2754822",NA,541,1051,4,170,240,199.411764705882,420,1140,20,FALSE,FALSE,"","","Route 6 at North St. Mattapoisett","",c(257240.324364495, 823966.380978615)
"70","WD","2754823",NA,530,1040,4,170,240,199.411764705882,420,1140,20,FALSE,FALSE,"","","Route 6 at Route 105 Marion","",c(260724.782640391, 829704.151303697)
"71","WD","4147999",NA,406.699781075278,1096.69978107528,8,98.5714285714286,100,98.6956521739131,420,1140,20,FALSE,FALSE,"","","Hillcrest Acres","",c(219282.206214149, 854791.939075781)
"72","WD","4148000",NA,375,1095,26,28.8,60,60,420,1140,20,FALSE,FALSE,"","","Plainville Commons Marketplace","",c(215590.249897562, 864994.584997093)
"73","WD","4148002",NA,427,1057,12,57.2727272727273,90,72.8571428571429,420,1140,20,FALSE,FALSE,"","","Broadway and Washington St","",c(233953.974013533, 852354.599722327)
"74","WD","4148003",NA,438,1068,12,57.2727272727273,90,72.8571428571429,420,1140,20,FALSE,FALSE,"","","Broadway and Washington St","",c(233937.033482642, 852370.526427359)
"75","WD","4148004",NA,431,1061,12,57.2727272727273,90,72.8571428571429,420,1140,20,FALSE,FALSE,"","","Market Basket Raynham","",c(234568.516043699, 854207.519403653)
"76","WD","4148005",NA,435,1065,24,27.3913043478261,90,72.8571428571429,420,1140,20,FALSE,FALSE,"","","Walmart Raynham","",c(234423.222230678, 853971.987403812)
"77","WD","4148006",NA,373,1093,13,60,60,60,420,1140,20,FALSE,FALSE,"","","Highland Hills Apartments","",c(232980.739752966, 848035.587425743)
"78","WD","4149352",NA,367,1087,12,65.4545454545455,63,70.05,420,1140,20,FALSE,FALSE,"","","South Ave & Tiffany St","",c(214251.10245965, 853620.42520167)
"79","WD","4149353",NA,407,1127,12,65.4545454545455,62,70.0111111111111,420,1140,20,FALSE,FALSE,"","","South Ave & Tiffany St","",c(214270.795181277, 853602.138437905)
"80","WD","4149375",NA,381,1101,13,60,60,60,420,1140,20,FALSE,FALSE,"","","Sturdy Memorial Urgent Care","",c(216028.034974204, 862236.260453803)
"81","WD","4149376",NA,362,1104,20,39.0526315789474,67.6,53.1374663072776,420,1140,20,FALSE,FALSE,"","","Sunset Acres","",c(214538.687520109, 861458.434239134)
"82","WD","4149378",NA,402,1122,13,60,60,60,420,1140,20,FALSE,FALSE,"","","Highland Hills Apartments","",c(232991.16054102, 848043.52872002)
"83","WD","4149398",NA,366,1086,13,60,60,60,420,1140,20,FALSE,FALSE,"","","Sturdy Memorial Urgent Care","",c(216026.743127317, 862218.452251948)
"84","WD","4149399",NA,370,1090,13,60,60,60,420,1140,20,FALSE,FALSE,"","","Plainridge Casino","",c(216126.433743652, 864707.360779308)
"85","WD","816028",NA,325,1140,113,7.27678571428571,20,16.9116564417178,420,1140,20,TRUE,TRUE,"","","Attleboro Transit Center","Attleboro",c(217812.965659071, 854591.096920355)
"86","WD","816030",NA,402.691973999388,1152,46,16.6512894666803,26.5331215903318,22.4381615918358,420,1140,20,TRUE,FALSE,"1012","","MayFaire Plaza and Stop & Shop","Attleboro",c(211778.04142742, 852685.659556087)
"87","WD","816031",NA,352,1143,28,29.2962962962963,49,41.4197218710493,420,1140,20,TRUE,FALSE,"","","Target","Attleboro",c(212268.357832949, 854418.056421043)
"88","WD","816032",NA,410,410,1,NA,NA,NA,420,1140,20,FALSE,NA,"","","Bishop Feehan High School","Attleboro",c(216959.029779639, 857085.776736145)
"89","WD","816033",NA,350.331361943292,1134.45116614986,14,60.3169080158898,62.5366097600638,60.3493941791932,420,1140,20,FALSE,FALSE,"1149","","South Street and East Washington Street","Attleboro",c(213436.487957841, 857446.416978539)
"90","WD","816034",NA,381,1110,24,31.695652173913,55,60.3168724279835,420,1140,20,FALSE,FALSE,"","","Broadway and Benefit Street","Attleboro",c(210610.271541952, 849212.133888611)
"91","WD","816035",NA,376,1158,15,55.8571428571429,60,59.2097186700767,420,1140,20,TRUE,FALSE,"","","Brown Street and Mendon Road","Attleboro",c(210272.69480562, 850572.898036619)
"92","WD","816036",NA,372,1154,14,60.1538461538462,60,60.1585677749361,420,1140,20,TRUE,FALSE,"1077","","Washington Street and Highland Avenue","Attleboro",c(211710.309206782, 852139.945548372)
"93","WD","816037",NA,351,1147,28,29.4814814814815,44,35.8316582914573,420,1140,20,TRUE,FALSE,"","","Walmart","Attleboro",c(212471.349239157, 853705.967103238)
"94","WD","816038",NA,336,1116,14,60,60,60.0230769230769,420,1140,20,FALSE,FALSE,"","","Stobbs Drive and North Avenue","Attleboro",c(216741.180177404, 856872.006155832)
"95","WD","816039",NA,426,846,2,420,420,420,420,1140,20,FALSE,FALSE,"","","Attleboro High School","Attleboro",c(216469.463325565, 854053.304155977)
"96","WD","816040",NA,362.866601699022,1082.86660169902,12,65.4545454545454,61.3570515485255,70.0102310494742,420,1140,20,FALSE,FALSE,"1009","","County Street and Jewell Avenue","Attleboro",c(216612.421626348, 853797.474439186)
"97","WD","816041",NA,538.912620019115,778.912620019115,3,120,120,120,420,1140,20,FALSE,FALSE,"1161","","Route 1 and North Washington Street","Attleboro",c(214142.010410091, 860350.370134654)
"98","WD","816042",NA,542,924,6,76.4,120,103.068062827225,420,1140,20,FALSE,FALSE,"1160","","Plainville Council on Aging (COA)","Attleboro",c(213625.222190586, 861748.420061356)
"99","WD","816043",NA,340,1120,27,30,41,33.6,420,1140,20,FALSE,FALSE,"","","Triboro Plaza","Attleboro",c(216561.54637458, 857777.106051187)
"100","WD","816044",NA,398,1088,8,98.5714285714286,100,98.695652173913,420,1140,20,FALSE,FALSE,"","","Hope Gardens","Attleboro",c(219765.75519363, 853776.075602578)
"101","WD","816045",NA,399,1089,8,98.5714285714286,100,98.695652173913,420,1140,20,FALSE,FALSE,"","","LaSalette Shrine","Attleboro",c(219873.798104711, 853458.719017557)
"102","WD","816047",NA,405,1095,8,98.5714285714286,100,98.695652173913,420,1140,20,FALSE,FALSE,"","","Park Street and Maple Street","Attleboro",c(219587.809687783, 854004.16207043)
"103","WD","816048",NA,364,1024,12,60,60,60,420,1140,20,FALSE,FALSE,"","","Attleboro Crossing","Attleboro",c(217733.786140154, 853965.734742676)
"104","WD","816049",NA,373,1033,12,60,60,60,420,1140,20,FALSE,FALSE,"1166","","Knight Avenue and South Main","Attleboro",c(214863.353091121, 850176.536387965)
"105","WD","816050",NA,382,1055,24,29.2608695652174,47,39.1188707280832,420,1140,20,FALSE,FALSE,"","","Central Plaza","Attleboro",c(213335.101058619, 848839.35753602)
"106","WD","816051",NA,397,1133,38,19.8918918918919,29,21.9347826086957,420,1140,20,FALSE,FALSE,"","","Stop and Shop","Attleboro",c(213852.352990047, 857960.140787363)
"107","WD","816052",NA,355,1108,26,30.12,33,30.4183266932271,420,1140,20,FALSE,FALSE,"","","Circle Court","Attleboro",c(213035.793027803, 859399.146643066)
"108","WD","816053",NA,524,1004,17,30,31,30.0333333333333,420,1140,20,FALSE,FALSE,"","","Elm Terrace","Attleboro",c(214583.411676861, 858675.872206973)
"109","WD","816054",NA,355,1140,55,14.537037037037,60,58.9490445859873,420,1140,20,TRUE,FALSE,"","","Emerald Square Mall","Attleboro",c(212518.693129603, 855075.440309328)
"110","WD","816068",NA,510,990,18,28.2352941176471,60,60,420,1140,20,FALSE,FALSE,"1146","","Trucchis","Middleborough",c(245579.5457279, 849684.776836113)
"111","WD","816069",NA,494,974,9,60,60,60,420,1140,20,FALSE,FALSE,"","","Acorn Hill","Middleborough",c(246380.324698882, 849425.806933129)
"112","WD","816070",NA,524,1004,9,60,60,60,420,1140,20,FALSE,FALSE,"1157","","Middleborough Town Hall","Middleborough",c(248909.286583269, 849184.83470447)
"113","WD","816071",NA,488,1002,18,30.2352941176471,34,30.6692607003891,420,1140,20,FALSE,FALSE,"","","Riverview Apartments","Middleborough",c(249302.610388844, 849049.042351187)
"114","WD","816072",NA,491,998,18,29.8235294117647,33.8,30.2504930966469,420,1140,20,FALSE,FALSE,"","","Nemasket Apartments","Middleborough",c(248538.839080503, 849862.664620064)
"115","WD","816073",NA,527,1009,9,60.25,63.5,60.4605809128631,420,1140,20,FALSE,FALSE,"","","Hannaford's","Middleborough",c(248727.498106354, 848227.465021116)
"116","WD","816074",NA,480,1020,18,31.7647058823529,60,60,420,1140,20,FALSE,FALSE,"1156","","Wood Street at Middlebury Arms","Middleborough",c(249829.900215023, 847722.854627082)
"117","WD","816075",NA,398,1090,11,69.2,141,122.187861271676,420,1140,20,FALSE,FALSE,"1155","","Lakeville MBTA Station","",c(248278.791355875, 847708.419825427)
"118","WD","816076",NA,500,980,9,60,60,60,420,1140,20,FALSE,FALSE,"","","Southeast Health Center","Middleborough",c(245322.747429196, 850150.988965653)
"119","WD","816077",NA,368,1112,4,248,511.2,533.032258064516,420,1140,20,FALSE,FALSE,"","","Norfolk Commuter Rail Station","Medway_T",c(214423.098512027, 874457.328502884)
"120","WD","816078",NA,357,417,2,60,60,60,420,1140,20,FALSE,FALSE,"","","Village Street Post Office","Medway_T",c(208480.583845937, 876632.601502066)
"121","WD","816079",NA,355,1126,4,257,532.8,559.015564202335,420,1140,20,FALSE,FALSE,"","","Medway Middle School","Medway_T",c(207724.472355562, 877285.263932591)
"122","WD","816084",NA,378,1070,11,69.2,91.2,74.5086705202312,420,1140,20,FALSE,FALSE,"1109","","Route 28 and Route 58","OWL_or_WLT",c(260310.655203155, 839238.848812857)
"123","WD","816086",NA,366,1056,11,69,84,73.768115942029,420,1140,20,FALSE,FALSE,"","","Mill Pond","OWL_or_WLT",c(264431.715012634, 835512.586982589)
"124","WD","816087",NA,360,1050,68,10.2985074626866,42,36.768115942029,420,1140,20,FALSE,FALSE,"","","Cranberry Plaza","OWL_or_WLT",c(269495.726450767, 834542.726972491)
"125","WD","816088",NA,965,965,1,NA,NA,NA,420,1140,20,FALSE,NA,"","","Wagner Way - Buzzards Bay","OWL",c(274917.188615394, 833808.628588232)
"126","WD","816090",NA,491,1031,10,60,60,60,420,1140,20,FALSE,FALSE,"1101","","Onset Village","OWL",c(269930.927089041, 832788.143603185)
"127","WD","816091",NA,355,1125,15,55,70,59.6857142857143,420,1140,20,FALSE,FALSE,"","","Onset Pier","OWL_or_WLT",c(269969.837472395, 832740.669478674)
"128","WD","816092",NA,483,1023,10,60,60,60,420,1140,20,FALSE,FALSE,"","","Wareham Center","OWL",c(265327.753087491, 834425.615378478)
"129","WD","816093",NA,475,1015,10,60,60,60,420,1140,20,FALSE,FALSE,"","","Swifts Beach Road and Grant Street","OWL",c(264786.002487886, 832738.202430927)
"130","WD","816094",NA,470,1010,19,30,60,60,420,1140,20,FALSE,FALSE,"","","Cromeset","OWL",c(263628.78492112, 833648.876359917)
"131","WD","816095",NA,546,906,3,180,228,200,420,1140,20,FALSE,FALSE,"","","Agawam Village","OWL",c(266076.819784974, 834545.489952103)
"132","WD","816096",NA,455,1022,12,51.5454545454545,60,55.0388007054674,420,1140,20,FALSE,FALSE,"","","7-Eleven (East Wareham)","OWL",c(271490.613049967, 837765.776276715)
"133","WD","816098",NA,430,1115,46,15.2222222222222,45,36.3839416058394,420,1140,20,FALSE,FALSE,"1255","","Kingston Collection","PAL",c(265051.318853331, 857931.49985175)
"134","WD","816099",NA,426,1064,21,31.9,38,35.1034482758621,420,1140,20,FALSE,FALSE,"","","Plymouth Public Library","PAL",c(269855.613530035, 855077.929688729)
"135","WD","816100",NA,415,1046,22,30.047619047619,59,56.7052297939778,420,1140,20,FALSE,FALSE,"","","BID Hospital","PAL",c(270844.259330064, 854988.327059733)
"136","WD","816101",NA,433,1057,21,31.2,36,33.6923076923077,420,1140,20,FALSE,FALSE,"","","Exit 5 P&B Bus Center","PAL",c(269462.007027507, 854292.619369091)
"137","WD","816103",NA,412,1050,22,30.3809523809524,49,42.551724137931,420,1140,20,FALSE,FALSE,"","","Shops at 5","PAL",c(270150.168794621, 853443.769207955)
"138","WD","816104",NA,436,1053,21,30.85,43,37.4894651539708,420,1140,20,FALSE,FALSE,"","","Long Pond Medical Center","PAL",c(269942.134684419, 853184.992322878)
"139","WD","816105",NA,450,1050,21,30,51,44.7,420,1140,20,FALSE,FALSE,"","","Plimouth Plantation","PAL",c(272435.409297504, 854543.755357396)
"140","WD","816106",NA,427,1071,43,15.3333333333333,50,43.1211180124224,420,1140,20,FALSE,FALSE,"","","Manomet Stop and Shop","PAL",c(278206.464359602, 852126.099278964)
"141","WD","816107",NA,433,1026,11,59.3,60,59.3743676222597,420,1140,20,FALSE,FALSE,"","","Indian Brook School","PAL",c(279670.520052421, 849250.769579051)
"142","WD","816108",NA,447,1040,21,29.65,50,43.6913996627319,420,1140,20,FALSE,FALSE,"","","Cedarville Bruno's Corner","PAL",c(278734.205600581, 841297.868565078)
"143","WD","816110",NA,421,1056,12,57.7272727272727,60,58.6220472440945,420,1140,20,FALSE,FALSE,"","","Gellar's","PAL",c(277107.937966335, 853082.980453347)
"144","WD","816111",NA,459,1059,21,30,33,30.3,420,1140,20,FALSE,FALSE,"","","Woodcrest Apartments","PAL",c(276612.932788541, 850824.028056795)
"145","WD","816112",NA,465,1065,11,60,60,60,420,1140,20,FALSE,FALSE,"","","White Horse Beach","PAL",c(278434.025108527, 853551.879417095)
"146","WD","816113",NA,430,1068,22,30.3809523809524,38,31.2758620689655,420,1140,20,FALSE,FALSE,"","","Cordage Park","PAL",c(267150.007791352, 859194.603661117)
"147","WD","816114",NA,440,1045,24,26.304347826087,55,44.7520661157025,420,1140,20,FALSE,FALSE,"","","Walmart","PAL",c(264857.254300186, 856362.292729139)
"148","WD","816115",NA,445,1045,44,13.953488372093,55,54.5,420,1140,20,FALSE,FALSE,"","","Industrial Park","PAL",c(266303.617588459, 856857.047372731)
"149","WD","816116",NA,435,1050,22,29.2857142857143,45,34.9186991869919,420,1140,20,FALSE,FALSE,"","","Market Basket","PAL",c(265205.789358675, 854964.155198639)
"150","WD","816117",NA,430,1053,22,29.6666666666667,37,30.5922953451043,420,1140,20,FALSE,FALSE,"","","Algonquin Heights Apartments","PAL",c(267329.628008833, 856249.076861942)
"151","WD","816118",NA,420,1077,65,10.265625,50,44.1202435312024,420,1140,20,FALSE,FALSE,"","","Plymouth Center","PAL",c(268961.885467698, 856968.334634563)
"152","WD","816120",NA,422,1122,14,53.8461538461538,112.6,100.582857142857,420,1140,20,FALSE,FALSE,"1274","","Kingston Train","SAIL",c(264467.357096592, 858857.175655124)
"153","WD","816122",NA,365,1137,25,32.1666666666667,50.7,42.1502590673575,420,1140,20,FALSE,FALSE,"","","Island Creek Village","SAIL",c(264223.091108345, 863298.712930918)
"154","WD","816123",NA,373,1079,23,32.0909090909091,59.8,53.1813031161473,420,1140,20,FALSE,FALSE,"1277","","Halls Corner Foodie's","SAIL",c(267531.077294859, 864180.442835428)
"155","WD","816124",NA,378,1072,21,34.7,60.6,47.4149855907781,420,1140,20,FALSE,FALSE,"","","Duxbury Library","SAIL",c(267621.20838527, 866550.283349278)
"156","WD","816125",NA,391,1067,12,61.4545454545455,66,62.2130177514793,420,1140,20,FALSE,FALSE,"","","Millbrook Motors","SAIL",c(266984.813639157, 867864.55742446)
"157","WD","816126",NA,489,996,18,29.8235294117647,36.6,32.1992110453649,420,1140,20,FALSE,FALSE,"1280","","Marshfield Senior Center","SAIL",c(267976.208548702, 870079.106367906)
"158","WD","816127",NA,386,1028,11,64.2,80,68.5700934579439,420,1140,20,FALSE,FALSE,"","","Beach Street Green Harbor General Store","SAIL",c(270282.982951797, 870394.524184182)
"159","WD","816128",NA,382,1060,12,61.6363636363636,70,62.4985250737463,420,1140,20,FALSE,FALSE,"","","Brant Rock","SAIL",c(270582.15068113, 871580.320724221)
"160","WD","816129",NA,377,1055,23,30.8181818181818,60,52.5929203539823,420,1140,20,FALSE,FALSE,"1283","","Winslow Apartments","SAIL",c(267096.245204247, 871907.689881405)
"161","WD","816133",NA,420,1065,22,30.7142857142857,50,45.0093023255814,420,1140,20,FALSE,FALSE,"1287","","Stop and Shop/Kohl's","SAIL",c(260199.897069112, 873120.152950695)
"162","WD","816134",NA,435,1030,13,49.5833333333333,90.3,298.926050420168,420,1140,20,FALSE,FALSE,"","","Taunton High School","Taunton",c(235628.365280324, 850136.527024991)
"163","WD","816135",NA,370,1090,13,60,70,60.8333333333333,420,1140,20,FALSE,FALSE,"","","Ingell Street and Weir Street","Taunton",c(234128.777323103, 848615.813402247)
"164","WD","816137",NA,361.162734329008,1081.16273432901,13,60,60,60,420,1140,20,FALSE,FALSE,"1024","","Oak Street and Kilmer Avenue","Taunton",c(232699.455001996, 849991.22544208)
"165","WD","816139",NA,363.337983079879,1114.18908742786,37,20.8569751207772,30.3379830798793,29.9602366015338,420,1140,20,FALSE,FALSE,"","","Downtown Taunton (Cohannet St & Rte. 44)","Taunton",c(233681.800305116, 850194.647746642)
"166","WD","816143",NA,487.255532791604,1117.2555327916,11,63,63.0000000000001,64.2857142857143,420,1140,20,FALSE,FALSE,"1119","","Thomas Apartments School Street","Taunton",c(234128.030906284, 851061.783195924)
"167","WD","816144",NA,491.245679473703,1121.2456794737,11,63,63,64.2857142857143,420,1140,20,FALSE,FALSE,"","","Social Security Office","Taunton",c(235306.330271456, 850562.433206007)
"168","WD","816145",NA,440,1124,12,62.1818181818182,60,63.4736842105263,420,1140,20,FALSE,FALSE,"1111","","Shaw's (Rear)","Taunton",c(236932.474058904, 850907.276117913)
"169","WD","816146",NA,465,1145,35,20,40,25.4771331614621,420,1140,20,FALSE,FALSE,"","","Pinehill Estates","Taunton",c(239317.713828108, 849738.334390369)
"170","WD","816147",NA,492.956996081643,1122.95699608164,11,63,63,64.2857142857143,420,1140,20,FALSE,FALSE,"","","Stop and Shop (Rear)","Taunton",c(236297.653238642, 850810.2038689)
"171","WD","816152",NA,397,1087,15,49.2857142857143,66,52.4028985507246,420,1140,20,FALSE,FALSE,"","","Washington Street and Bay Street","Taunton",c(233206.66342762, 853193.320420404)
"172","WD","816156",NA,300,1171,179,4.89325842696629,18.3,14.7566016073479,420,1140,20,TRUE,TRUE,"","","Bloom Bus Terminal (Taunton)","Taunton",c(233111.087614136, 850157.522993196)
"173","WD","816157",NA,363.089197866151,1083.08919786615,13,60,60,60,420,1140,20,FALSE,FALSE,"","","Bristol Commons","Taunton",c(231803.624292938, 849873.035338585)
"174","WD","816158",NA,395,1140,61,12.4166666666667,24.3,28.36990014403,420,1140,20,TRUE,FALSE,"","","Walmart","Taunton",c(238734.914574277, 850472.053800748)
"175","WD","816159",NA,372.127460772145,1092.12746077215,13,60,66.5843741630808,60.361283192662,420,1140,20,FALSE,FALSE,"","","Plain Street and Hart Street","Taunton",c(234757.815362416, 848039.535125223)
"176","WD","816160",NA,365,1130,26,30.6,45,37.9411764705882,420,1140,20,FALSE,FALSE,"","","Richard DeWert Terrace","Taunton",c(232141.837498168, 849276.82331298)
"177","WD","816164",NA,393,1113,13,60,60,60,420,1140,20,FALSE,FALSE,"","","Hart's Four Corners","Taunton",c(235972.165158008, 848322.73243612)
"178","WD","816165",NA,380,1160,54,14.7169811320755,48,37.9410256410256,420,1140,20,TRUE,FALSE,"","","Target","Taunton",c(235813.368519853, 847596.072614811)
"179","WD","816167",NA,383,1155,39,20.3157894736842,38,29.2564766839378,420,1140,20,TRUE,FALSE,"","","Downtown Courthouse","Taunton",c(233713.42171524, 850300.113713762)
"180","WD","816168",NA,425,1119,12,63.0909090909091,64,64.2593659942363,420,1140,20,FALSE,FALSE,"","","School Street and Winter Street","",c(234595.354892914, 851558.666136543)
"181","WD","816170",NA,376,1119,26,29.72,37,31.3660834454913,420,1140,20,FALSE,FALSE,"1104","","Presbey Court","Taunton",c(233592.786688429, 848764.078298699)
"182","WD","816171",NA,392,1082,26,27.6,45,40.4347826086956,420,1140,20,FALSE,FALSE,"","","Morton Hospital","Taunton",c(233671.281991471, 850672.098274636)
"183","WD","816173",NA,399.617840271192,1089.41772583378,15,49.2714203973279,65.859919893813,52.374643191934,420,1140,20,FALSE,FALSE,"","","1380 Bay Street","Taunton",c(231903.446953423, 855179.427541906)
"184","WD","816174",NA,476,1091,14,47.3076923076923,45,49.6471544715447,420,1140,20,FALSE,FALSE,"","","Northwoods Medical Center","Taunton",c(231689.006302634, 856601.978228824)
"185","WD","816175",NA,405,1096,28,25.5925925925926,45,61.4341534008683,420,1140,20,FALSE,FALSE,"","","Myles Standish Industrial Park","Taunton",c(230473.033804586, 854715.592706561)
"186","WD","816176",NA,310,1055,11,74.5,100,87.6174496644295,420,1140,20,FALSE,FALSE,"1138","","Tremont Street and Norton Avenue","Taunton/Attleboro",c(231106.259042746, 851251.908697607)
"187","WD","816177",NA,315,1060,11,74.5,100,87.6174496644295,420,1140,20,FALSE,FALSE,"","","Norton Post Office","Taunton/Attleboro",c(225932.697398343, 857393.780638649)
"188","WD","816178",NA,320,1065,11,74.5,100,87.6174496644295,420,1140,20,FALSE,FALSE,"","","Chartley Corners","Taunton/Attleboro",c(222614.385135681, 855619.70590785)
"189","WD","816179",NA,383,1075,6,138.4,316,339.991329479769,420,1140,20,FALSE,FALSE,"1114","","South Middleborough","Wareham_Lakeville_T",c(255267.5511328, 842213.703324632)
"190","WD","816180",NA,391.797896179774,1141.32118106004,20,39.4485939410667,75.4767151197332,56.7094947784269,420,1140,20,TRUE,FALSE,"","","Union Street","Attleboro",c(218113.861589107, 854846.918351682)
"191","WD","816182",NA,401,1119,21,35.9,57.1,44.5208913649025,420,1140,20,FALSE,FALSE,"","","Fuller Hospital","Attleboro",c(211618.264362332, 852656.869346355)
"192","WD","816183",NA,394,1084,8,98.5714285714286,100,98.695652173913,420,1140,20,FALSE,FALSE,"","","Sturdy Hospital","Oak_Hill",c(218511.175746145, 854579.824715041)
"193","WD","816185",NA,471,1071,8,85.7142857142857,100,93.75,420,1140,20,FALSE,FALSE,"","","Bristol Community College","Attleboro",c(218737.747257865, 855370.719894075)
"194","WD","816188",NA,423,1023,11,60,60,60,420,1140,20,FALSE,FALSE,"","","Post Office - Plymouth","PAL",c(269306.946980502, 856492.299258331)
"195","WD","816200",NA,528,1062,16,35.6,47,57.1498127340824,420,1140,20,FALSE,FALSE,"","","Walmart Supercenter","",c(262668.858951817, 836848.187579626)
"196","WD","816201",NA,430,1061,21,31.55,31,32.9302694136292,420,1140,20,FALSE,FALSE,"","","Senior Center","Plymouth",c(270195.820048822, 855252.495479633)
"197","WD","816488",NA,396,1086,15,49.2857142857143,66,52.4028985507246,420,1140,20,FALSE,FALSE,"","","Whittenton 3 Corners","Taunton",c(233341.218286126, 852584.502732221)
"198","WD","816914",NA,330.789313378988,1110.78931337899,14,60,60,60.0230769230769,420,1140,20,FALSE,FALSE,"","","Park Street and Main Street","",c(217884.205684943, 854959.642813305)
"199","WD","816915",NA,383.86674627673,1105.86674627672,13,60.1666666666661,61.7999999999636,60.1828254847635,420,1140,20,FALSE,FALSE,"","","Park Street and Main Street","",c(217836.925680309, 854963.418634048)
"200","WD","816918",NA,410.578965360066,1130.57896536006,12,65.4545454545448,62.0000000000047,70.0111111111106,420,1140,20,FALSE,FALSE,"","","Thatcher Street and Maple Terrace","",c(216405.166345889, 853738.137002714)
"201","WD","816919",NA,373.113405213249,1155.10656120177,14,60.1533196914245,60,60.1580090940176,420,1140,20,TRUE,FALSE,"","","Washington Street and Horton Avenue","",c(211483.770634048, 851520.158083504)
"202","WD","816920",NA,373.859402015014,1155.85432673488,14,60.1534557476817,60,60.1581534661161,420,1140,20,TRUE,FALSE,"","","Washington Street and Brown Street","",c(211327.489170472, 851145.225397419)
"203","WD","816921",NA,378.996627183158,1160.99662718316,14,60.1538461538461,60,60.158567774936,420,1140,20,TRUE,FALSE,"","","Washington Street and Bacon Street","",c(210758.40916574, 849586.745563749)
"204","WD","816922",NA,374.599867762343,1156.59654809962,14,60.1535907951751,60,60.1582967750611,420,1140,20,TRUE,FALSE,"","","Brown Street and Adamsdale Avenue","",c(210903.820616011, 850994.512152033)
"205","WD","816923",NA,374.975665922214,1156.97323726329,14,60.1536593339289,60,60.1583695094025,420,1140,20,TRUE,FALSE,"","","Brown Street and Robinson Avenue","",c(210693.293370516, 850914.499907906)
"206","WD","816924",NA,339.455178547415,1119.45517854741,13,65,60,69.2307692307692,420,1140,20,FALSE,FALSE,"","","Mendon Street and Harding Avenue","",c(210435.671555593, 850420.507556436)
"207","WD","816925",NA,376.67149762205,1158.67149762205,14,60.1538461538461,60,60.158567774936,420,1140,20,TRUE,FALSE,"","","Mendon Street and Meunier Avenue","",c(210481.452711962, 850351.185911749)
"208","WD","816926",NA,377.555654856951,1159.55565485695,14,60.1538461538461,60.0000000000001,60.158567774936,420,1140,20,TRUE,FALSE,"","","Mendon Road and Robinson Avenue","",c(210820.62032128, 850119.523094673)
"209","WD","816927",NA,341.190703176425,1121.19070317642,14,60,60,60.0979277035412,420,1140,20,FALSE,FALSE,"","","Washington Street and Orr Street","",c(211416.748501051, 851246.084144454)
"210","WD","816928",NA,364.460733157936,1024.46073315794,12,60,60,60,420,1140,20,FALSE,FALSE,"","","S Main Street and Clarence Street","",c(217824.458172938, 853791.722114096)
"211","WD","816929",NA,368.164422078007,1028.16442207801,12,60,60,60,420,1140,20,FALSE,FALSE,"","","S Main Street and Camp Street","",c(216697.461942415, 852211.33318871)
"212","WD","816930",NA,404.952811456825,1064.95281145683,12,60,60,60,420,1140,20,FALSE,FALSE,"","","S Main Street - Dodgeville","",c(216797.20791367, 852302.365214322)
"213","WD","816933",NA,341.995868339595,1121.99586833959,14,60,60.4261443377023,60.0197069414506,420,1140,20,FALSE,FALSE,"","","Commonwealth Avenue and Stanley Street","",c(215955.154814286, 857684.371263009)
"214","WD","816934",NA,342.87382334358,1122.87382334358,14,60,60.6135993648118,60.0186853593948,420,1140,20,FALSE,FALSE,"","","Commonwealth Ave and Towne Street","",c(215506.40048065, 857840.807045683)
"215","WD","816935",NA,344.244123365221,1124.24412336522,14,60,60.9061765772417,60.0176535745343,420,1140,20,FALSE,FALSE,"","","Elm Street and Union Street","",c(214906.511940814, 858276.123795218)
"216","WD","816936",NA,371.929255925984,1093.92925592598,5,180.5,396.6,419.174515235457,420,1140,20,FALSE,FALSE,"","","Elm Street and Elm Terrace","",c(214464.510593245, 858597.194093823)
"217","WD","816947",NA,312.26580870129,1057.26580870129,11,74.5,100,87.6174496644295,420,1140,20,FALSE,FALSE,"1136","","Short Street and Norton Ave","taunton",c(228550.637032656, 853657.662787821)
"218","WD","816948",NA,438.788714481732,1169.78871448171,11,73.0999999999979,100.412112855183,85.3207973013661,420,1140,20,FALSE,FALSE,"","","Tremont Street and Oak Street","taunton",c(233126.803343658, 850365.005620089)
"219","WD","816949",NA,302.928522953278,1047.92852295328,11,74.5,100,87.6174496644295,420,1140,20,FALSE,FALSE,"","","Tremont Street and Shores Street","Taunton",c(232735.64453653, 850598.946372258)
"220","WD","816950",NA,424.510045623214,1155.51004562321,11,73.1,100.5,85.4870041039672,420,1140,20,FALSE,FALSE,"1078","","West Main Street and Scott Drive","Town of Norton",c(225687.960208462, 857221.838892607)
"221","WD","816951",NA,315.444864134275,1060.44486413428,11,74.5,100,87.6174496644295,420,1140,20,FALSE,FALSE,"1131","","West Main Street and Scott Drive","Town of Norton",c(225699.419954095, 857261.865857629)
"222","WD","816953",NA,423.225929153793,1154.22592915379,11,73.1,100.5,85.4870041039672,420,1140,20,FALSE,FALSE,"1051","","West Main Street & David Street","Town of Norton",c(224809.268444337, 856752.206001423)
"223","WD","816954",NA,427.737484294977,1158.73748429498,11,73.1,100.5,85.4870041039672,420,1140,20,FALSE,FALSE,"1170","","Short Street and Norton Ave","Taunton",c(228529.90386473, 853649.606524298)
"224","WD","816955",NA,316.758075070562,1061.75807507056,11,74.5,100,87.6174496644295,420,1140,20,FALSE,FALSE,"1127","","West Main Street & David Street","Town of Norton",c(224811.634594021, 856786.64607751)
"225","WD","816965",NA,416.538329165864,1144.84430089318,11,72.8305971727313,100.5,85.1029742526739,420,1140,20,TRUE,FALSE,"1064","","Pleasant Street and Perry Avenue","Attleboro",c(218895.531694944, 855697.647796106)
"226","WD","816966",NA,416.674982948255,1145.08682864486,11,72.8411845696606,100.5,85.1177438735266,420,1140,20,TRUE,FALSE,"1169","","Bank of America and Pleasant Street","Attleboro",c(219020.485793983, 855787.949344056)
"227","WD","816967",NA,419.278010573061,1149.71602246495,11,73.0438011891892,100.5,85.4054869793796,420,1140,20,TRUE,FALSE,"","","Old Colony Road and Crowe Farm Lane","Town of Norton",c(221841.25891796, 855741.67431538)
"228","WD","816974",NA,323.20542113239,1070.03336927057,11,74.6827948138182,100,87.823564639484,420,1140,20,FALSE,FALSE,"","","Pleasant Street and Haggerty Hwy","attleboro",c(219035.650035213, 855814.495857329)
"229","WD","816978",NA,321.136418803426,1066.78448174122,11,74.5648062937792,100,87.6896138204693,420,1140,20,FALSE,FALSE,"","","Old Colony Road and Pleasant Street","norton",c(221382.280934106, 855944.413848943)
"230","WD","816979",NA,418.831364597565,1148.92171249689,11,73.0090347899322,100.5,85.3554281917551,420,1140,20,TRUE,FALSE,"","","Old Colony Road and Pleasant Street","norton",c(221373.544702315, 855923.596250108)
"231","WD","816987",NA,346.443222275932,1126.44322227593,14,60,60,60.0273823731138,420,1140,20,FALSE,FALSE,"","","North Attleboro Center","",c(213995.771423861, 859063.904533245)
"232","WD","818214",NA,366.035338243904,1086.09884089286,13,60.0052918874132,60,60.0052970210404,420,1140,20,FALSE,FALSE,"1149","","South Street and East Washington Street","Attleboro",c(213450.040237184, 857429.188139136)
"233","WD","818215",NA,379,1101,13,60.1666666666667,61.8,60.1828254847645,420,1140,20,FALSE,FALSE,"","","Stobbs Drive and North Avenue","Attleboro",c(216730.379345188, 856861.805534744)
"234","WD","818701",NA,340,1120,14,60,60,68.525641025641,420,1140,20,FALSE,FALSE,"","","Brown Street and Mendon Road","Attleboro",c(210248.049111585, 850613.505051396)
"235","WD","818702",NA,342,1122,14,60,60,60.0641025641026,420,1140,20,FALSE,FALSE,"1077","","Washington Street and Highland Street","Attleboro",c(211732.774453006, 852144.194508739)
"236","WD","818703",NA,411.117160351141,1131.11716035113,12,65.4545454545447,62.0000000000053,70.0111111111106,420,1140,20,FALSE,FALSE,"1171","","272 County Street","Attleboro",c(216674.531836557, 853830.515090745)
"237","WD","818704",NA,371,1123,24,32.695652173913,32,37.0691489361702,420,1140,20,FALSE,FALSE,"","","Newport Avenue and Highland Avenue","Attleboro",c(211885.788167665, 852222.850414792)
"238","WD","818736",NA,685.772816521132,925.772816521132,3,120,120,120,420,1140,20,FALSE,FALSE,"1161","","Route 1 and N Washington Street","Attleboro",c(214133.451989071, 860351.460092888)
"239","WD","818737",NA,401,1091,8,98.5714285714286,100,98.695652173913,420,1140,20,FALSE,FALSE,"","","Hope Gardens","Attleboro",c(219784.524312911, 853784.290314234)
"240","WD","818738",NA,400,1090,8,98.5714285714286,100,98.695652173913,420,1140,20,FALSE,FALSE,"","","LaSalette Shrine","Attleboro",c(219883.039883395, 853459.308389527)
"241","WD","818739",NA,408,1068,12,60,60,60,420,1140,20,FALSE,FALSE,"","","Attleboro Crossing","Attleboro",c(217743.033759868, 853969.912312946)
"242","WD","818740",NA,401,1061,12,60,60,60,420,1140,20,FALSE,FALSE,"1166","","Knight Avenue and South Main","Attleboro",c(214868.006386519, 850164.709232875)
"243","WD","818741",NA,430,1161,11,73.1,100.5,85.4870041039672,420,1140,20,FALSE,FALSE,"1138","","Tremont Street and Norton Avenue","Taunton/Attleboro",c(231105.624751373, 851245.563534478)
"244","WD","818742",NA,425,1156,11,73.1,100.5,85.4870041039672,420,1140,20,FALSE,FALSE,"","","Norton Post Office","Taunton/Attleboro",c(225920.468168314, 857390.852824549)
"245","WD","818743",NA,420,1151,11,73.1,100.5,85.4870041039672,420,1140,20,TRUE,FALSE,"","","Chartley Corners","Taunton/Attleboro",c(222615.001623694, 855606.567335631)
"246","WD","818744",NA,509,1144,10,70.5555555555556,101,83.8976377952756,420,1140,20,FALSE,FALSE,"","","Bristol Community College","Attleboro",c(218746.889570334, 855361.656992241)
"247","WD","818746",NA,413.744291997379,1133.74429199738,13,60,60,60,420,1140,20,FALSE,FALSE,"1024","","Oak Street and Kilmer Avenue","Taunton",c(232696.034418379, 849978.393912699)
"248","WD","818747",NA,411.978523158315,1131.97852315832,13,60,60,60,420,1140,20,FALSE,FALSE,"","","Bristol Commons","Taunton",c(231809.339779197, 849867.506305853)
"249","WD","818754",NA,418,1109,15,49.3571428571429,63.6,51.2489146164978,420,1140,20,FALSE,FALSE,"","","Washington Street and Bay Street","Taunton",c(233199.308036482, 853184.276910511)
"250","WD","818756",NA,375,1095,13,60,65,60.2083333333333,420,1140,20,FALSE,FALSE,"","","Hart's Four Corners","Taunton",c(235962.761668358, 848319.385875326)
"251","WD","818758",NA,414.489316182636,1105.48931618264,14,53.1538461538462,69.8,61.4341534008683,420,1140,20,FALSE,FALSE,"","","1380 Bay Street","",c(231895.652700834, 855183.998194368)
"252","WD","818759",NA,442,1114,26,26.88,45,34.6875,420,1140,20,FALSE,FALSE,"","","Morton Hospital","Taunton",c(233680.186885375, 850696.735521616)
"253","WD","818761",NA,419,1110,15,49.3571428571429,63.6,51.2489146164978,420,1140,20,FALSE,FALSE,"","","Whittenton 3 Corners","Taunton",c(233331.532619005, 852578.722180013)
"254","WD","818762",NA,462.578821518646,1152.57882151865,12,62.7272727272727,66.789410759323,64.2115374263887,420,1140,20,FALSE,FALSE,"1119","","Thomas Apartments School Street","Taunton",c(234119.283169267, 851069.433886592)
"255","WD","818763",NA,458.09119524208,1148.09119524208,12,62.7272727272727,72.0270672993854,63.2865560455965,420,1140,20,FALSE,FALSE,"","","Social Security Office","Taunton",c(235298.881806868, 850573.846999378)
"256","WD","818764",NA,455,1145,12,62.7272727272727,75,63.2608695652174,420,1140,20,FALSE,FALSE,"1112","","Shaw's (Rear)","Taunton",c(236931.477214781, 850918.523299004)
"257","WD","818766",NA,461,1151,12,62.7272727272727,66,64.1072463768116,420,1140,20,FALSE,FALSE,"","","School Street and Winter Street","",c(234585.518279125, 851566.366936728)
"258","WD","818767",NA,398,1118,14,55.3846153846154,60,57.3277777777778,420,1140,20,FALSE,FALSE,"","","Ingell Street and Weir Street","Taunton",c(234134.528508094, 848603.833628265)
"259","WD","818769",NA,395.868934007999,1115.868934008,14,55.3846153846154,60,57.3222508748252,420,1140,20,FALSE,FALSE,"","","Plain Street and Hart Street","Taunton",c(234750.528497884, 848050.889952968)
"260","WD","819319",NA,382,1024,11,64.2,79.5,67.5732087227414,420,1140,20,FALSE,FALSE,"","","Millbrook Motors","SAIL",c(266992.035053122, 867861.832520851)
"261","WD","819322",NA,391,1033,11,64.2,80,68.5700934579439,420,1140,20,FALSE,FALSE,"","","Brant Rock","SAIL",c(270590.482084234, 871567.040897828)
"262","WD","819659",NA,490,995,9,63.125,71.7,66.370297029703,420,1140,20,FALSE,FALSE,"1109","","Route 28 and Route 58","OWL_or_WLT",c(260296.682691276, 839233.075002624)
"263","WD","819660",NA,544,904,7,60,60,60,420,1140,20,FALSE,FALSE,"","","Wareham Crossing","OWL_or_WLT",c(262961.764853018, 836783.61978592)
"264","WD","819661",NA,494,999,9,63.125,68.1,64.4217821782178,420,1140,20,FALSE,FALSE,"","","Mill Pond","OWL_or_WLT",c(264440.274415264, 835500.399039875)
"265","WD","819663",NA,440,1033,21,29.65,37,31.5463743676223,420,1140,20,FALSE,FALSE,"","","Ellisville Harbor State Park","",c(279583.361371345, 844295.415902474)
"266","WD","819664",NA,1064,1124,2,60,60,60,420,1140,20,FALSE,FALSE,"","","Village Street Post Office","",c(208482.057807817, 876648.690812341)
"267","WD","819915",NA,495,1035,10,60,60,60,420,1140,20,FALSE,FALSE,"","","Gellar's","PAL",c(277110.492326797, 853106.878469962)
"268","WD","819916",NA,486,1026,10,60,60,60,420,1140,20,FALSE,FALSE,"","","White Horse Beach","PAL",c(278441.490679485, 853561.593404107)
"269","WD","819917",NA,529,1069,10,60,60,60,420,1140,20,FALSE,FALSE,"","","Post Office - Plymouth","PAL",c(269330.011784241, 856491.646917377)
"270","WD","819918",NA,522,1062,10,60,60,60,420,1140,20,FALSE,FALSE,"","","Wareham Center","",c(265339.47421733, 834433.513265877)
"271","WD","819919",NA,514,1054,10,60,60,60,420,1140,20,FALSE,FALSE,"1101","","Onset Village","",c(269902.086737387, 832807.056266689)
"272","WD","819920",NA,519,999,4,160,216,180,420,1140,20,FALSE,FALSE,"","","Agawam Village","",c(266071.346515641, 834558.328674021)
"273","WD","819921",NA,350,440,2,90,90,90,420,1140,20,FALSE,FALSE,"","","Wagner Way - Buzzards Bay","",c(274918.329487517, 833826.094066407)
"274","WD","819927",NA,511,991,9,60,60,60,420,1140,20,FALSE,FALSE,"","","Acorn Hill","",c(246366.945323573, 849417.810063857)
"275","WD","835711",NA,455,1010,10,61.6666666666667,70,62.1171171171171,420,1140,20,FALSE,FALSE,"","","Harbor CVS","",c(264044.02865262, 882983.571496117)
"276","WD","835712",NA,458,1013,10,61.6666666666667,70,62.1171171171171,420,1140,20,FALSE,FALSE,"","","Village Market","",c(263891.382200137, 882861.529515848)
"277","WD","835713",NA,460,1015,10,61.6666666666667,70,62.1171171171171,420,1140,20,FALSE,FALSE,"","","Widow's Walk Golf Course","",c(263079.44913138, 880999.014616108)
"278","WD","835714",NA,462,1019,9,69.625,86.5,76.1921005385996,420,1140,20,FALSE,FALSE,"","","Greenbush MBTA","",c(262260.702200538, 881203.758232586)
"279","WD","835715",NA,468,1026,10,62,70.4,62.6200716845878,420,1140,20,FALSE,FALSE,"","","Town Hall","",c(260434.427219033, 883238.791408014)
"280","WD","835716",NA,488,1046,10,62,70.4,62.6200716845878,420,1140,20,FALSE,FALSE,"","","Central Park","",c(261495.569618043, 883731.510576434)
"281","WD","835717",NA,493,1051,10,62,70.4,62.6200716845878,420,1140,20,FALSE,FALSE,"","","Wheeler Park","",c(262946.406275487, 882290.098612055)
"282","WD","835718",NA,498,1056,10,62,70.4,62.6200716845878,420,1140,20,FALSE,FALSE,"","","Senior Center","",c(263708.785934009, 882869.739567448)
